Latitude,Longitude,NIMI1
25.160047347438002,60.22088993175689,Niinilahti
25.1754159089546,60.208160945439,Vuosaarenlahti
25.172556946367504,60.2104303200476,Ruusuniementie
25.1703898853521,60.2128910075219,Majakanvartijankatu
25.168661429600395,60.2246472307851,ABC Vuosaaren satama
25.1924996652295,60.25843741398089,Östersund. Kartano
25.195742834182898,60.2616756215405,Östersund. Ponikoulu
25.176248302900895,60.251562902292605,Östersundom
25.1739141243585,60.25143993663551,Östersundom
25.1421955968292,60.2430006340557,Westerkulla
25.142674730853898,60.2443160153819,Westerkulla
25.151608073579503,60.245217244897496,Vikkulla
25.1522650757749,60.245929643491,Vikkulla
25.155774005115198,60.24660826981461,Vikkulla 2
25.1561118747687,60.2474849994649,Vikkulla 2
25.164575041096302,60.24934991400661,Talosaarentie
25.163352499096398,60.249504249884794,Talosaarentie
25.1762850555651,60.251580529272296,Östersundom
25.173878015332303,60.251440255832,Östersundom
25.1860287873148,60.2533340002637,Östersundom 2
25.1834419957903,60.253222433282005,Östersundom 2
25.192213507495197,60.255037972806704,Karhusaarentie
25.1902733332482,60.254830968869804,Karhusaarentie
25.187587530415602,60.23851817351979,Talosaari
25.1871372443079,60.2495271302563,Östersund. kappeli
25.2066291237082,60.2506709607199,Skutholminkaari
25.207401918098,60.25105889419001,Skutholminkaari
25.1911883369513,60.254661191873296,Karhusaarentie
25.2012048745573,60.270719311582496,Landbo
25.1935602518469,60.271694816436,Miilumäentie
25.1920031681928,60.2696263037478,Karhunevantie
25.197634730585698,60.2684625952094,Landbonpolku
25.2023163435786,60.2704758738204,Landbo
25.1975565409263,60.268795422225196,Landbonpolku
25.1928525218748,60.2696276561654,Karhunevantie
25.1949312696412,60.271628634265205,Miilumäentie
25.154778993435997,60.2557906302913,Susiraja
25.154533828322503,60.2554965464998,Susiraja
25.201772125921,60.27091165941629,Landbo
25.196720068743502,60.2825097138441,Rajapysäkki
25.195787942330497,60.2822308652018,Rajapysäkki
24.840859512437,60.2212493641914,Mäkkylän asema
24.7255828684176,60.21050343750811,Kauniaisten kirjasto
24.7300792660699,60.206682045801,Smedsin kenttä
24.7044335274383,60.2150603460382,Kasavuoren päiväkoti
24.706580490262,60.213397406004894,Urheilutie
24.6995597211731,60.219143133140896,Kaunialan sairaala
24.699429574826798,60.221504423684394,Kauniaisten jäähalli
24.7253671978163,60.21462447160279,Bio Grani
24.7505671079082,60.218559347697,Karamalmi
24.812884051518502,60.21941305138311,Leppävaaran asema
24.8017506728505,60.2200821438317,Gransinmäenportti
24.8224129734169,60.225296339478206,Porarinkatu
24.823276378952,60.2273464472377,Vallityöläisenpolku
24.812538007540102,60.22438776303039,Hakkukuja
24.8121539971052,60.219803479776296,Leppävaaran keskus
24.8118913948857,60.2201282151029,Leppävaaran keskus
24.8196849850982,60.228059806897896,Vallikuja
24.8208953498144,60.227388119002896,Vallikuja
24.812946162599896,60.2197357999039,Leppävaaran keskus
24.812504286192897,60.2201065133283,Leppävaaran keskus
24.803528060913898,60.2226743754942,Gransinmäki
24.8063307117107,60.221445649059106,Gransinmäki
24.8108308947686,60.22321339608211,Veräjäpelto
24.810209531777502,60.2243571158704,Veräjäpelto
24.8077884221978,60.22129317357351,Ratsukatu
24.8174767908985,60.22852221228229,Rautakiskonkuja
24.816458107471103,60.2289234159313,Rautakiskonkuja
24.813320476184398,60.2282964177144,Vallikatu
24.814737239423,60.22866471401521,Vallikatu
24.8125484161578,60.2306438263241,Viserrystie
24.820089687062897,60.2261993167445,Vallikallionkuja
24.8141250504776,60.22289703266999,Timpurinkuja
24.8127355223138,60.2192434206458,Leppävaaran asema
24.8119796676946,60.219319852995994,Leppävaaran asema
24.8116004088561,60.2193042208811,Leppävaaran asema
24.8111316210047,60.2193160622195,Leppävaaran asema
24.812685058779,60.2266846663313,Ajurinkatu
24.8106797644027,60.21928291948979,Leppävaaran asema
24.8113794740831,60.221316150846995,Läkkisepänkuja
24.8098227301855,60.221110238175,Läkkisepänkuja
24.810156860027103,60.219295087888604,Leppävaaran asema
24.813330579925605,60.2192307999794,Leppävaaran asema
24.8122215616005,60.2188875345077,Leppävaaran asema
24.8119358273678,60.219005968087,Leppävaaranaukio
24.812709047488198,60.2189025022181,Leppävaaran asema
24.811608692838302,60.218909234934905,Leppävaaran asema
24.810888477527104,60.2189674915681,Leppävaaran asema
24.8105441934836,60.218906763777,Leppävaaran asema
24.811336079955396,60.221020214716795,Läkkisepänkuja
24.822757571053298,60.225366010644706,Porarinkatu
24.806919344282104,60.2285149939248,Kyyhkysmäki
24.8241435236999,60.22882207460239,Aseveljentie
24.811774258422698,60.228530275969604,Kyyhkyspuisto
24.8158584981956,60.2214951406818,Arkadianportaat
24.812280819107198,60.2285810323444,Kyyhkyspuistonpolku
24.8195868921976,60.224129011320706,Laturintörmä
24.814885397465503,60.2266352751651,Ajurinmäki
24.814078536226695,60.2283007472754,Vallikatu
24.809944532410398,60.2267821967214,Veräjäkallionkatu
24.8041677336163,60.2259556399165,Leppävaaran uimah.
24.8034750929583,60.225672608731394,Leppävaaran uimah.
24.813119560047497,60.2245547422991,Hakkukuja
24.8147551422856,60.222839312019,Timpurinkuja
24.8216820681955,60.219161411952896,Puustellinmäki
24.813718183056103,60.221768576537,Konstaapelinkatu
24.8141132874182,60.2216943475188,Konstaapelinkatu
24.821008259547803,60.2196323236506,Puustellinmäki
24.813844159965402,60.2290381991897,Vallikatu
24.804329850898398,60.2200485887407,Gransinmäenportti
24.8132479391185,60.2195364836556,Leppävaara
24.8132254572756,60.2193571053255,Leppävaara
24.812972913447197,60.2193586523358,Leppävaara
24.813191378797,60.21943809634029,Leppävaara
24.8082596252537,60.2257782015022,Leppäv. liikuntah.
24.8007657760115,60.2248273038192,Leppävaaran Stadion
24.808786417207898,60.2178583416111,Viaporintori
24.8088400894652,60.2178400629529,Viaporintori
24.810191293302303,60.2141068631423,Linnoitustie
24.8069141719575,60.2172863097855,Rummunlyöjänkatu
24.7995580354758,60.2137584605064,Ruusutorppa
24.804100722904202,60.2173213354738,Huvilinnanpiha
24.8007174722664,60.2147029050387,Ruusutorppa
24.800390516636,60.2168321403489,Säterinpuistontie
24.797828919404896,60.20940662872621,Hirsalantie
24.806543477126798,60.216148636292,Huvilinna
24.810565553285304,60.2190412703588,Leppävaaran asema
24.806560359107298,60.214631623257,Ruusutorpanpolku
24.804587811685,60.21437432177011,Säterinrinne
24.8054258318232,60.213974303618706,Säterinrinne
24.796346276573,60.2099989606964,Masalantie
24.800279822611298,60.2100650568087,Pikkalantie
24.804028215280102,60.2099346904918,Salmintie
24.800900123211,60.2140555456376,Ruusutorppa
24.8117382382124,60.215389927241404,Sokerilinnantie
24.8114030272396,60.214234097765505,Säterinkatu
24.812323111027002,60.2164275425355,Sokerilinnantie
24.8100168024683,60.21361425879311,Etuvartio
24.811185135349003,60.2134455585181,Linnoitustie
24.815795205314398,60.218946400957606,Leppävaaran asema
24.8169398940041,60.2192714655663,Leppävaaran asema
24.815417261619803,60.212441260335396,Säteri
24.811863469857897,60.2124271441801,Etuvartio
24.812534600367602,60.2118485849981,Impilahdentie
24.8123633240622,60.2100275432891,Impilahdentie
24.8092627607732,60.2093643249239,Leirikatu
24.8102305894568,60.20911607255779,Leirikatu
24.804589676961196,60.2100300215546,Salmintie
24.800753511722696,60.210259667151796,Pikkalantie
24.7985137913763,60.2123555473509,Pikkalankulma
24.7983920632598,60.2117997802847,Pikkalankulma
24.8128617321988,60.217052551426704,Ratsutori
24.802153519719802,60.2173690207759,Ruusutorpan koulu
24.8159676298811,60.2215303731028,Arkadianportaat
24.820195819137997,60.2239457342988,Laturintörmä
24.8165277912266,60.222289871910604,Ylänteenkatu
24.8419532670599,60.2209821318632,Mäkkylän asema
24.8327809384408,60.220716865163,Kalkkipellonmäki
24.835132933039304,60.220262272618896,Kalkkipellonmäki
24.824496205230197,60.22346132780311,Postipuun koulu
24.8242343718967,60.223813010420706,Postipuun koulu
24.8224735537671,60.221229922746296,Postipuunkuja
24.8221199440454,60.221519339239705,Postipuunkuja
24.826264076426302,60.226313619321004,Mäkkyläntie
24.8175810089573,60.221834598948,Postipuu
24.825578682841396,60.226326859286296,Mäkkyläntie
24.8204730404421,60.2220411500907,Postipuunmäki
24.833895319026603,60.2276571541992,Kenttäpäällikönpuist
24.832796636273397,60.2213360985072,Ruutikellarintie
24.840128834886197,60.2251315490454,Sotarovastintie
24.8356226949019,60.2253305311574,Sotatuomari
24.834940956694197,60.226196499455796,Sotatuomari
24.8280572496804,60.2258626316315,Sotaneuvoksentie
24.828808082575303,60.226297760894795,Sotaneuvoksentie
24.825526810676603,60.2264169399452,Mestarinsilta
24.8258924251585,60.2280392870242,Mestarinsilta
24.8258903612183,60.22580432370461,Mäkkylänkuja
24.831983395423197,60.221996433228504,Ruutikellarintie
24.826976639042897,60.2237959551294,Mäkkylän puistotie
24.826786513587,60.223411179454295,Mäkkylän puistotie
24.8185155930141,60.222412266767904,Lvaaran Palvelutalo
24.805423472386302,60.2308039257819,Tikankolo
24.804560162551397,60.2309258452962,Tiaisentie
24.804950338245696,60.2306452311441,Tiaisentie
24.8125828883141,60.23422495373771,Uuttu
24.8092316297889,60.2359328672251,Lintuparvenaukio
24.814555355749697,60.2344282865291,Linnuntie
24.8142599249544,60.234160825058495,Linnuntie
24.8140167848592,60.236002351536506,Lintumetsänpiha
24.8132108493547,60.2362586117711,Lintumetsänpiha
24.813815764925298,60.2315336427872,Pikkulinnunreitti
24.8134488517766,60.2312935450315,Pikkulinnunreitti
24.8138192346046,60.2338583502192,Lintukulma
24.813279427729302,60.2331974496908,Lintukulma
24.812484895641102,60.230994270775206,Viserrystie
24.8274991658961,60.2309284671418,Mäkkylänmetsä
24.8260540519248,60.234464955873605,Lintulaakson koulu
24.826924659324604,60.2310487321132,Mäkkylänmetsä
24.8270597909864,60.2313979467221,Varusmiehentie
24.8216893474182,60.23459974829479,Lintulaakson koulu
24.8236036986662,60.23464174225511,Lintulaakson koulu
24.8224286708678,60.2338501799999,Lintulaakson koulu
24.8188654799547,60.2342761137918,Kirkkalankuja
24.818166566012696,60.2344778897111,Kirkkalankuja
24.8246214233881,60.2306052917961,Reserviläisentie
24.8248049584925,60.235038196298106,Nostoväenkuja
24.831667510229103,60.2351749051397,Lotankatu
24.8319135800913,60.234913065305,Lotankatu
24.8352447513828,60.2374323051333,Kanttiinitie
24.832160314560298,60.24108686974979,Uusmäki
24.829540373048395,60.2402864647543,Muskettitie
24.8361085735744,60.237328134757995,Kanttiinitie
24.8290577754948,60.24047797030371,Muskettitie
24.8253461604393,60.2393342383948,Krenatöörintie
24.8259063806016,60.2393576825549,Krenatöörintie
24.8314043536022,60.2333365132935,Heikunantie
24.8302846848455,60.232598528012,Heikunantie
24.833058294246502,60.2409017234974,Uusmäki
24.835120653744802,60.2396501090213,Hilapellontie
24.834626689243496,60.2393929164515,Hilapellontie
24.8335116100879,60.2409796610834,Uusmäki
24.8308918256208,60.245178798132294,Alokastie
24.8314658824122,60.2450315926635,Alokastie
24.8325433466868,60.2497820101925,Lehtovuori
24.832385400504602,60.2499625158546,Lehtovuori
24.831459652410498,60.2454983727376,Rykmentinmäki
24.822961891787,60.237841103779296,Lintumetsä
24.822024316317396,60.2371647512836,Lintumetsä
24.821351405911603,60.2384075741475,Lintumetsä
24.819048340324503,60.2430533030824,Helmipöllönmäki
24.819394399321798,60.241004690382006,Helmipöllönkatu
24.819041806768897,60.2406209069481,Helmipöllönkatu
24.8137049501775,60.2387149484807,Kultarinta
24.813379837128,60.238707964542996,Kultarinta
24.8136328771186,60.2409054796475,Sinirinta
24.8133607825553,60.24085329184529,Sinirinta
24.808901022522804,60.2415626912929,Jääskeläntie
24.8084043605731,60.2411887333791,Jääskeläntie
24.8087979093953,60.244704837765894,Paikkalinnuntie
24.808336863888197,60.2443127111406,Paikkalinnuntie
24.808711867874305,60.24707496321079,Muuttolinnunmäki
24.808200385439502,60.24683573117311,Muuttolinnunmäki
24.8090153609623,60.2366791745251,Lintuparvenaukio
24.8090506992172,60.2395781341778,Lintuvaaran koulu
24.8083764409951,60.2393219431183,Lintuvaaran koulu
24.825992310033197,60.212636164022996,Everstinkatu
24.8372003889828,60.21501633794471,Vermon ravirata
24.826396058843397,60.212193835011206,Everstinkatu
24.8259329987673,60.2109939566115,Majurinkulma
24.8243782305585,60.210851034564,Majurinkulma
24.826294568355497,60.2103095427997,Majurinkulma
24.8304937130159,60.2116027787059,Tarvaspääntie
24.8305917132764,60.211198252873004,Tarvaspääntie
24.8329011679702,60.2169193361014,Vermontie
24.8339900603429,60.2164637069746,Vermontie
24.8353027066628,60.2141666146792,Kaarlo Sarkian katu
24.8357175321734,60.214164003221796,Kaarlo Sarkian katu
24.833116222898802,60.2118825441647,Tarvonsalmenkatu
24.8335483715607,60.21185290311,Tarvonsalmenkatu
24.8192237697485,60.212462697404,Yhdyskunnanmäki
24.818870001441002,60.21274313104529,Yhdyskunnanmäki
24.8166802201662,60.2139055284184,Säteri
24.8261932235043,60.214887845702705,Majurinpolku
24.826621128622197,60.214687713162,Majurinpolku
24.824999413891202,60.2169148316255,Perkkaankuja
24.826729400318197,60.2161231706467,Kirjurinkuja
24.8205479695778,60.2170950147423,Komentajankatu
24.825098841153302,60.2172822221986,Perkkaankuja
24.818001216556397,60.2184212031175,Hevosenkenkä
24.8425191695158,60.2212388403462,Mäkkylä
24.8426796855298,60.2211660147379,Mäkkylä
24.835759292653602,60.2179335904085,Vermo
24.834686616968302,60.2176082346782,Vermo
24.8390556116148,60.21490588809421,Vermon Ravirata
24.8351571723846,60.209150036633396,Derby Business Park
24.816213510300397,60.2052826364117,Kurkijoentie
24.812588121902,60.2081771488157,Leppäsolmu
24.810820091339195,60.204498901829396,Laajalahden koulu
24.809387357398702,60.2049025846943,Laajalahden koulu
24.8045427642705,60.204429400451204,Raivaaja-aukio
24.8061439737181,60.2042760694814,Raivaaja-aukio
24.7998756502088,60.204574300890705,Jääskentie
24.8001024055087,60.204258780532996,Jääskentie
24.797540492462602,60.2034663805137,Koivistontie
24.798032318143395,60.2036698671152,Koivistontie
24.7984477045553,60.2014682949452,Ilmeentie
24.8031471538772,60.201188609957505,Kirvunristi
24.8036687574545,60.199659562587996,Makslahdentie
24.8028643460278,60.1992066657779,Makslahdentie
24.815115387134103,60.206088234718706,Kurkijoentie
24.809810672774,60.200124864530494,Turvesuontie
24.8074168309729,60.1995650006565,Turvesuontie
24.807036343253003,60.1965514382648,Laajaranta
24.779464698595298,60.201652972382405,Turvesuo
24.796645882136396,60.201524004182396,Ilmeentie
24.802921382723397,60.20080401623179,Kirvunristi
24.796455388275103,60.2018482768586,Ilmeentie
24.775181936427302,60.202791058834705,Vehkaniitty
24.749299065004,60.22466103348639,Logen
24.787196640229503,60.2082763421255,Friisinmäenaukio
24.784897432056603,60.2086669437152,Friisinmäenaukio
24.7666030090036,60.208396900775,Nuijamäki
24.794416907554,60.2092745087536,Masalantie
24.796091403854604,60.2091567648581,Hirsalantie
24.7739351161928,60.207277250828106,Kellarikuja
24.775784373617803,60.2076883147513,Kellarikuja
24.768447622611298,60.2086106267089,Nuijamäki
24.770660524841105,60.214530776935604,Lansantorppa
24.771951226963395,60.2149541130363,Lansantorppa
24.767277708325,60.2118037926618,Nuijavuori
24.7702188668848,60.2118495869523,Nuijavuori
24.7626727658174,60.211570037870906,Nihtimäki
24.7642241743857,60.211579065110705,Nihtimäki
24.7559878556778,60.209516933874596,Nihtisillankuja
24.7584785743707,60.2095924800093,Nihtisillankuja
24.7526081058939,60.2084231498674,Kutojantie
24.7532935693367,60.2084282365759,Kutojantie
24.752505154662,60.2070773706398,Nihtisillanportti
24.753392168639998,60.20643505929421,Nihtisilta
24.7533547324118,60.2071623080289,Nihtisillanportti
24.7654640610925,60.2075058983726,Vitikka
24.7627660998291,60.2101513314006,Nihtitorppa
24.7619541532303,60.2101380439737,Nihtitorppa
24.783261808748804,60.2179844898577,Kilo
24.7832959596136,60.2179035063776,Kilo
24.7528052670392,60.2146691527356,Nihtimäentie
24.7514278563444,60.21202013745751,Kutojantie
24.779655550864803,60.2142628247377,Linkopolku
24.7767146068403,60.2119463672334,Vasamatie
24.790146265349197,60.2169383988259,Kilonpuiston koulu
24.7860523448248,60.2237753178586,Kilonkartano
24.7885740446916,60.22358982251921,Kilonkartano
24.7493388672431,60.21770461634811,Karamalmi
24.7643576871072,60.225849740717294,Kuninkainen
24.7667699502791,60.225602460740994,Kuninkainen
24.757535082421697,60.22578113786779,Karanristi
24.760613509370103,60.2254673369119,Karanristi
24.762205714465605,60.2202073951156,Karaniitty
24.764006412490502,60.2122983796476,Nihtimäki
24.763614338365503,60.2148317996108,Lansanportti
24.7652251721918,60.2158367828253,Lansanportti
24.765627002090202,60.2191465188682,Kelkkamäentie
24.7650586757166,60.2203076675293,Kelkkamäentie
24.76002343758,60.223361417659206,Karamalmens skola
24.7604981204235,60.22360104417479,Karamalmens skola
24.760390160173397,60.2204960556654,Karaniitty
24.761303583017302,60.220984486184996,Karaniitty
24.7542384331252,60.2189514216407,Karakorpi
24.7555548579135,60.218925983599206,Karakorpi
24.7511422773441,60.2176764718397,Karamalmi
24.7865269989402,60.2232519118649,Kilonkartano
24.774998005535696,60.21717132352679,Lansanpuro
24.7753526202281,60.21690895534861,Lansanpuro
24.7807215289527,60.21737115173529,Kilon asema
24.780729970763197,60.2169671923964,Kilon asema
24.7864328760983,60.217059186166104,Trillakatu
24.7869845213799,60.21674176430329,Trillakatu
24.7858193550358,60.21931573935289,Kilontie
24.7858457585455,60.2204196030815,Kilontie
24.7535047212638,60.216065399863794,Kera
24.7535930553408,60.215984116680204,Kera
24.757691415705498,60.22160652775,Karakaari
24.7807967559694,60.218259310465,Kilonkuja
24.788501771086803,60.222082322195995,Kilon talli
24.7825900549023,60.2223506757761,Kilon portti
24.771455046192496,60.2191756055863,Ruotutie
24.7742129951975,60.222902439540206,Kuninkaisten päiväk.
24.786106683504897,60.2298156850782,Leppälinnunkuja
24.776546974098395,60.233094236655205,Tatartie
24.777619191280102,60.2257817000939,Leppäsilta
24.779041307509498,60.2248757866317,Leppäsilta
24.7760438277053,60.231661059104994,Ratamotie
24.7817673366394,60.2332700447744,Nurmilinnuntie
24.779878198783397,60.2266839760318,Pääskyskuja
24.779266652527102,60.226768348903,Pääskyskuja
24.7736632750479,60.229439991295,Poutahaukanpolku
24.7747003325116,60.2290300353932,Poutahaukanpolku
24.767877260577997,60.2297428538349,Karakallionkuja
24.7691699660815,60.22945712305321,Karakallionkuja
24.7633092270371,60.22809970788939,Karakallion keskus
24.7613063573393,60.2281112080058,Karakallion keskus
24.784917316103,60.233664345445995,Heurlinintie
24.7776681007374,60.22937171502271,Rastaskukkula
24.7770775217095,60.2303445539691,Rastaspuisto
24.7731905241892,60.233122800245894,Rastasmäki
24.7731084068258,60.23270141855679,Rastasmäki
24.756380580265198,60.228148338043496,Karakalliontie
24.756820976543104,60.226898201628195,Karamäki
24.757806520959,60.22659638055389,Karamäki
24.772500832877398,60.230658485567595,Kalasääksenkuja
24.7764737512955,60.230760970800894,Rastaspuisto
24.7616094192005,60.22872879556021,Karatalo
24.7715216281638,60.231229651068794,Kalasääksenkatu
24.7627470083727,60.230310970032704,Kotkatie
24.7767550479369,60.2296822355214,Kalasääksentie
24.7717714809294,60.22726989541761,Tornihaukantie
24.7792600063278,60.2287699812834,Leppälinnunrinne
24.762429534172302,60.229074142137605,Hopeakotka
24.758688734862197,60.2296341152632,Karakallion koulu
24.7433838296525,60.236766622678395,Nuumäki
24.7593896640029,60.23653244194329,Olkiniitty
24.7594021078632,60.2362900262751,Olkiniitty
24.740746985953002,60.239904901810796,Lähderannanristi
24.7419354772155,60.2405714445475,Lähderannanristi
24.7641159787695,60.241056020900096,Veininkatu
24.7489236621081,60.2438083504597,Kuttulammentie
24.7636179254107,60.2374955237109,Vanha Rastaalantie
24.753366926092,60.233658615756795,Parrukuja
24.7533943716711,60.2332814797937,Parrukuja
24.7624695813352,60.2370174332685,Vanha Rastaalantie
24.752545915577503,60.23248745218449,Rastasniityntie
24.752494604328103,60.2318235396529,Rastasniityntie
24.7689467970936,60.237653262958005,Äraportti
24.767819984379802,60.2357838554851,Vanha Sveinsintie
24.752816837270103,60.243517068075704,Kuttulampi
24.7531191975664,60.243317888263505,Kuttulampi
24.7478330674044,60.2363556848195,Hirsikalliontie
24.749785083276898,60.241999373572504,Hirsipolku
24.7577970901637,60.2410473502229,Latvatie
24.7548202029477,60.2387754970819,Latvapolku
24.7516240331738,60.235580320755,Etelärinne
24.7428585296695,60.2414728299781,Lähdepuronpuisto
24.7471102341048,60.243459536228,Kuttulammentie
24.7515832371809,60.2464142312714,Laaksolahdenranta
24.7499965430096,60.245723096099795,Laaksolahdenranta
24.733488693856398,60.239047620745296,Lipparinne
24.7348262018708,60.239121007674704,Lipparinne
24.730518260788102,60.236981634165105,Kolkekannas
24.7316204422532,60.2370294203833,Kolkekannas
24.7382237564762,60.2400894905494,Lähderannanristi
24.739555745826603,60.241518190757596,Lähdeaukio
24.745541284008397,60.2451288571043,Laaksolahden tennisk
24.7446454048591,60.2438413828407,Lähderannan päiväk.
24.7746548492715,60.2531121905103,Jupperi
24.7743410926521,60.2528267970125,Jupperinympyrä
24.769756949095697,60.2383307246953,Äraportti
24.7652162517446,60.2410137825766,Veininkatu
24.7569216451298,60.249274091447,Pitkäjärvenranta
24.7549658651327,60.24903390290461,Pitkäjärvenranta
24.7629276492728,60.2505142794463,Huvilamäki
24.764409720236696,60.2505685883581,Huvilamäki
24.767749703098897,60.252075195658996,Kaivosmiehentie
24.769812625777195,60.2522517459441,Kaivosmiehentie
24.7724197232978,60.25329574520661,Jupperinympyrä
24.775136431627804,60.253620996946296,Jupperinympyrä
24.772905371052104,60.2386445389227,Luuvantie
24.773594061053902,60.242589850642794,Snällbacka
24.774369385812896,60.24331236609079,Snällbacka
24.775442131501396,60.2482158292826,Jupperinmetsä
24.7722001691489,60.238594787225104,Luuvantie
24.776159856434997,60.2487860833216,Jupperinmetsä
24.770711272076802,60.2543737784779,Kaivoskuja
24.772831790106398,60.2539216483459,Kaivoskuja
24.7665410611761,60.248267498705104,Laaksolahdenaukio
24.7686849974611,60.248829553856794,Laaksolahdenaukio
24.7662379880584,60.256167870894096,Rinnetie
24.7661701863839,60.2555848412396,Rinnetie
24.764589568189397,60.258286658403904,Jupperinaukio
24.767254717642302,60.24326390305,Veini
24.7695727272212,60.2466433137714,Jupperin koulu
24.7673216722113,60.243811035208,Veini
24.7693797736064,60.2461148642196,Jupperin koulu
24.759960272062504,60.2463665624464,Neljäs huvilatie
24.76921712445,60.25150123602221,Palokunnanpuisto
24.7584354460677,60.24601625037349,Neljäs huvilatie
24.750674394552398,60.2287820978034,Viherkalliontie
24.7473559644392,60.2257041948234,Rajamänty
24.747709462144698,60.22537907827729,Rajamänty
24.7361965529412,60.22536263938851,Kavallinmäki
24.7377241157318,60.2250848882776,Kavallinmäki
24.7221240669393,60.2246500683723,Kuusiniemi
24.7238640674875,60.2241828316547,Kuusiniemi
24.7412469868679,60.2268693844997,Viherlaaksontori
24.7407204934485,60.2267287115409,Viherlaaksontori
24.7414012189585,60.229704849091995,Humisevanristi
24.7408045246453,60.2296543254646,Humisevanristi
24.743665441869602,60.2316668431848,Kahiseva
24.7431250800775,60.2317147471631,Kahiseva
24.7372053158362,60.2309130063874,Humisevanportti
24.737973407697897,60.2305586868711,Humisevanportti
24.733086141498298,60.2299125832491,Honkavaarankuja
24.733083552638,60.228988099978196,Honkavaarantie
24.7296819164743,60.226152564686295,Viherlaaksonranta
24.7430299457097,60.22431928912021,Kavallinpelto
24.742259012178696,60.224539019067294,Kavallinpelto
24.730501432831602,60.22648913479279,Viherlaaksonranta
24.7305991115349,60.226012884866,Viherlaaksonranta
24.743797637755698,60.235112775407494,Nuumäki
24.742133342052398,60.227762004465106,Kievarinpolku
24.742268922490503,60.221783416910704,Kavallinkuja
24.7437399534265,60.22220601826329,Kavallinkuja
24.745393318453196,60.229072148078004,Viherkallionkuja
24.7311614469906,60.22857684085339,Honkavaarantie
24.744070226729303,60.2296181125801,Viherkallionkuja
24.747122524821897,60.2289277928475,Viherkalliontie
24.7374903889572,60.223515436586,Karhukallio
24.742156871097304,60.229601894472296,Viherkallion koulu
24.737641063559103,60.224600661136705,Estrada Viherlaakso
24.737896682818302,60.227947181783,Viherlaakson lukio
24.7055515023805,60.224281417737,Petas
24.6959873027348,60.223389456089,Ingas
24.6940443137048,60.22365992256479,Ingas
24.7082130133428,60.2272112710136,Linnustaja
24.706155084075398,60.225498901629706,Linnustaja
24.710973511229803,60.2280222801398,Kolkeranta
24.709658235563502,60.2281190736978,Kolkeranta
24.7159635462406,60.230104751531705,Riistatie
24.7151276061567,60.229839985991,Riistatie
24.716458923288396,60.2321305843213,Auroran koulu
24.715715309727003,60.231964056669504,Auroran koulu
24.717974042288297,60.23456378641729,Heiniemenpolku
24.716158515813497,60.234079928071004,Tammihaantie
24.7156945150634,60.235150535725296,Heiniemenpolku
24.7250706903056,60.2355215266407,Vilniemi
24.7219832792341,60.2354844949749,Vilniemi
24.706586266499702,60.2245721120427,Petas
24.7169510311753,60.2340038459251,Tammihaantie
24.719138740783603,60.2308774524765,Ansatie
24.7212347636649,60.232634294330396,Tammihaantie
24.710578531535603,60.2014204144473,Ymmersta
24.711931709920997,60.2014580399985,Ymmersta
24.723403088996395,60.2024282077646,Alasin
24.726015445841398,60.202324183433895,Palje
24.7400125377302,60.2041138190402,Stensinsilta
24.7358979972683,60.2055907700668,Oravamäki
24.735871126345895,60.2051959865314,Oravamäki
24.7296510922357,60.203641626957904,Vasaramäki
24.7259516490571,60.2027015132685,Palje
24.7029793578696,60.206954023224796,Koivuhovi
24.7029231494243,60.2068555881962,Koivuhovi
24.7191121294589,60.201634739327794,Peikin ratsastusk.
24.8145195532476,60.1733031327159,Sateenkaari
24.802813592169,60.1779252725078,Kulttuuriaukio
24.806396795012102,60.17635071130201,Tapionaukio
24.8080640035434,60.1782075409028,Tapiolan uimahalli
24.808121966135698,60.174697628337405,Tapiolanympyrä
24.8077425629741,60.174655060507796,Tapiolanympyrä
24.806948488178,60.1826843055268,Aarnivalkean koulu
24.8070675751815,60.1823963538871,Aarnivalkean koulu
24.8020162374583,60.1821756707995,Päivättärenpolku
24.802187232939502,60.18179765138411,Päivättärenpolku
24.810401595138302,60.1772777402505,Kontiontie
24.805684531837002,60.175224082817,Tapiola (M)
24.8043773855338,60.1748191284717,Tapiola (M)
24.805489225688,60.1753419553214,Tapiola (M)
24.8055349231982,60.175000595300105,Tapiola (M)
24.802813592169,60.1779252725078,Kulttuuriaukio
24.803636601313,60.174733861112394,Tapiola (M)
24.8033872988415,60.1741160377998,Tuulimäki
24.807993260430397,60.1782618270311,Tapiolan uimahalli
24.801595852741798,60.1752757873465,Länsituulenkuja
24.8050882912635,60.1751558970023,Tapiola (M)
24.8047446964717,60.1751041273444,Tapiola (M)
24.8043650735811,60.175052575329396,Tapiola (M)
24.804021480992603,60.1750008037918,Tapiola (M)
24.803659874945602,60.174949140531794,Tapiola (M)
24.803262460040102,60.17490666904389,Tapiola (M)
24.810761121812803,60.173586464551605,Sateentie
24.809879330886698,60.173627756182604,Sateentie
24.8111077656467,60.1708377303246,Tapiolansilta
24.810254121042103,60.1705557214517,Tapiolansilta
24.801719470041,60.17221427464371,Tuuliniitty
24.8025781879909,60.1719667321576,Tuuliniitty
24.8100667122009,60.170260662898905,Tapiolansolmu
24.811111846644103,60.1702722257763,Tapiolansolmu
24.8065727689848,60.17617909994411,Tapionaukio
24.806667904202598,60.17638496594461,Tapionaukio
24.807078734917102,60.176238852721504,Tapionaukio
24.8068814475432,60.1762759566261,Tapionaukio
24.806918798253303,60.1763295844952,Tapionaukio
24.8074585958845,60.1762993714341,Tapionaukio
24.8075675682723,60.1763346113219,Tapionaukio
24.8075675682723,60.1763346113219,Tapionaukio
24.807711690465897,60.1763337336269,Tapionaukio
24.803445234075102,60.175013272063396,Tapiola
24.8034970868652,60.1749231993847,Tapiola
24.794971366031103,60.1770120972596,Tornitaso
24.7868591207852,60.1753371162515,Jousenkaaren koulu
24.787390098528,60.1741850579076,Puhurinpolku
24.7989436505526,60.171414225107604,Tuulikuja
24.7920595444443,60.169821918760604,Hakamaantie
24.796084219906803,60.1783248703574,Ahertajankuja
24.7931077709879,60.171458233257894,Hakamäki
24.7877934990405,60.174478864712,Puhurinpolku
24.7875951511763,60.1752250371239,Jousenkaaren koulu
24.7960659863975,60.1783160039636,Ahertajankuja
24.7996056753702,60.176418758641006,Pohjantie
24.779475532777802,60.17472548417621,Urheilupuisto (M)
24.800373787989102,60.176144849817604,Pohjantie
24.7997903225391,60.1758611427391,Pohjantie
24.798739447027998,60.1793321516815,WeeGee-talo
24.7985309668443,60.178166547672795,WeeGee-talo
24.7965008196151,60.18139210559399,Kaskenkaataja
24.7955291442168,60.1814517922192,Kaskenkaataja
24.8000155740544,60.175491774368,Pohjantie
24.797124694161102,60.1744141290337,Hakarinne
24.797247533315897,60.1742787529198,Hakarinne
24.7913205301801,60.1735513058508,Hakalehto
24.7931722766716,60.1733876539263,Hakalehto
24.786002589156798,60.1734213671119,Jousenkaari
24.7854128457393,60.1736223295905,Jousenkaari
24.793373612997303,60.1742660821125,Kelohongantie
24.793205213095998,60.174006790053795,Kelohongantie
24.7927676851893,60.1760379462115,Oravannahkatori
24.7844428059943,60.178277551068,Tapiolan urheilup.
24.825836334628402,60.171249469656104,Keilalahti
24.824222443575103,60.1708286686697,Itämetsä
24.8286074442793,60.1754149438098,Keilaniemi
24.828570571353804,60.1760973410158,Keilaniemi
24.8249984321537,60.1751950960277,Harjuviita
24.820700892572,60.1791531918839,Itäranta
24.820709956368297,60.178794101156505,Itäranta
24.8164429215264,60.178937124076796,Otsolahdentie
24.817258983569197,60.1784204737047,Otsolahdentie
24.812722462800604,60.1778649204506,Kontiontie
24.8246441357721,60.177593857975594,Otsolahdenniitty
24.8149848520153,60.1819081249724,Pihkapolku
24.815511610092898,60.1813483840738,Mäntyviita
24.812478756523902,60.181860669391604,Poutapolku
24.81290631736,60.18166058079429,Poutapolku
24.811076892548105,60.183475926635104,Hopealehto
24.8290841192955,60.175026001706705,Keilaniemi (M)
24.829968955188697,60.175819320284205,Keilaniemi (M)
24.8347193196145,60.1777013686331,Keilaranta
24.8356287739674,60.1780367249576,Keilaranta
24.824178142211498,60.1697787658941,Karhusaarensolmu
24.8232800303157,60.1698830798003,Karhusaarensolmu
24.814774170658303,60.182860859970205,Hagalundinsilta
24.814371759180897,60.1826209832965,Hagalundinsilta
24.7620097232211,60.172852313187796,Riihitonttu
24.7622525610784,60.17244700611529,Riihitonttu
24.7671225181852,60.1827411048656,Lukupuronpuisto
24.760788864882496,60.180829836273205,Lukupuronportti
24.780994538775897,60.169645202640496,Niittymäentie
24.777681743628897,60.1773479796461,Orioninristi
24.774954632262002,60.1701922605326,Niittymaantie
24.770195680967603,60.1808383761808,Orion
24.7820132204103,60.171577979216,Niittymaanaukea
24.771464431599302,60.1803822121072,Orion
24.7692382886921,60.1830519803888,Oriola
24.7781469339807,60.1833051937247,Ylä-Mankkaa
24.7784981577039,60.18215422852529,Ylä-Mankkaa
24.7605320919603,60.1697192618058,Niittykummuntie
24.7653870153788,60.170885112056894,Niittykumpu (M)
24.7646462958277,60.1700187311096,Niittykumpu (M)
24.7629497143361,60.1706568102969,Niittykumpu (M)
24.7630841221281,60.17101506948111,Niittykumpu (M)
24.7784219091195,60.1720748280687,Niittymaa
24.7807716959939,60.1724020955276,Niittymaa
24.7700788615925,60.171225957238995,Niittyportti
24.771999057442898,60.170909614443595,Niittyportti
24.762724702763098,60.1710530404953,Niittykumpu (M)
24.762607063692798,60.1706408296474,Niittykumpu (M)
24.7794538043135,60.1730471321808,Jousenpuisto
24.7787517669324,60.1745950988562,Urheilupuisto (M)
24.7792042976083,60.1754451441572,Urheilupuisto (M)
24.778651060774898,60.178715592820396,Urheilupuistontie
24.7782896411367,60.177909890390794,Urheilupuistontie
24.7675643822537,60.173098529490794,Kotitonttu
24.767084705553998,60.1733885310579,Kotitonttu
24.770016045447697,60.1754718838989,Tonttupolku
24.770067613740302,60.176135794763,Tonttupolku
24.7775310242832,60.1747817781629,Metsätonttu
24.7763647350703,60.1749860790458,Metsätonttu
24.775886282817897,60.1776187944427,Orioninristi
24.7673617567762,60.1682707116613,Niittysilta
24.7709019425035,60.1679090958741,Haukilahdensolmu
24.78055321104,60.174584508171904,Urheilupuisto
24.7805519340638,60.1745306607224,Urheilupuisto
24.7632521790229,60.1704935050769,Niittykumpu
24.763359003997504,60.17043903528789,Niittykumpu
24.7739459021358,60.1686632853111,SRV
24.7697013683383,60.1697202108611,If
24.7658355666236,60.1777759461295,Tontunmäki
24.762903126755802,60.16864649567929,Niittykummun päiväk.
24.758949530907003,60.1698360385699,Niittykummun kenttä
24.7927793593699,60.1810104893096,Miilupolku
24.793302743884603,60.181043263207705,Miilupolku
24.7905909986964,60.1806824700799,Viertopolku
24.8052021255838,60.1893819189475,Valkjärventie
24.7898598891887,60.1817549496669,Kaskenkaatajanpuisto
24.791733509055298,60.18397876008579,Vemmelsäärentie
24.792495084973602,60.184171680266196,Vemmelsäärentie
24.793364514150895,60.18509996893379,Ukonvaaja
24.7933037453538,60.1848220817355,Ukonvaaja
24.7988141304951,60.186862428318605,Takojanpuisto
24.793451091669002,60.188689781099995,Piilopolku
24.7951841466221,60.183581133423395,Pohjantori
24.794870856769702,60.1840407786172,Pohjantori
24.797112972331,60.186576459497005,Takojantie
24.805506741104498,60.1951964081919,Laajaranta
24.8006626525141,60.196904209032404,Muolaanpuisto
24.7970926139933,60.187967835260494,Louhentori
24.797180231164603,60.190839573004205,Terijoentie
24.7967615655023,60.190671547556704,Terijoentie
24.795697749781603,60.1936399534342,Uudenkirkontie
24.795554426158198,60.192931723282605,Uudenkirkontie
24.795269022508997,60.196039067112,Kivennapa
24.793697548133103,60.195168847759504,Kivennapa
24.8034186583161,60.1879476232355,Keijuniitty
24.7995252322722,60.196839261653096,Muolaanpuisto
24.8038703346103,60.187253747480604,Keijuniitty
24.784767295387002,60.1828173984195,Koivuviita
24.787221321135203,60.1837004385585,Koivu-Mankkaa
24.7830476913445,60.18780016345261,Visamäki
24.78386669545,60.186619494666395,Visamäki
24.793617601687103,60.1828904009684,Pohjankulma
24.7893631933924,60.182835005837795,Tuohimäki
24.8039651932636,60.1844975903203,Kalevanvainio
24.806823043355198,60.189327191012204,Tietäjä
24.797642404331004,60.188341515244595,Louhentori
24.7969191133738,60.187502134657,Takojantie
24.802190407559902,60.1893193831455,Raudunkulma
24.800184777143397,60.1898610703506,Rauduntie
24.7999756141464,60.1894135404321,Rauduntie
24.804191082487996,60.18489115792129,Kalevanvainio
24.805992015448,60.187779423101595,Spektri Espoo
24.8040253581145,60.1854845679541,Sito Espoo
24.7924120198273,60.1874573286199,Pohj-Tapiolan lukio
24.787470492965497,60.1805574207658,Tuohimäen päiväkoti
24.8019882603913,60.19285708198711,Rauduntie
24.8058183799257,60.1858416968264,Laurea Otaniemi
24.8375768808699,60.18024147945021,Otaniemensilta
24.836428560928503,60.1797281252661,Otaniemensilta
24.8337101034001,60.181962283819104,Otaranta
24.8319070515442,60.1826378200604,Otaranta
24.841605058797303,60.166527735582896,Hanasaari
24.827834211592197,60.186935815565796,Otakaari
24.829943170125297,60.1890858202355,Sähkömies
24.834184333441602,60.1885834962382,Teekkarikylä
24.835025665517,60.188353806005004,Teekkarikylä
24.833817122014498,60.18760743529101,Teekkarikylä
24.829203729555804,60.184063959862,Aalto-yliopisto (M)
24.828329307857103,60.1836924370857,Aalto-yliopisto (M)
24.8272444837403,60.18713696368749,Otakaari
24.824938615088396,60.1807156295026,Tekniikantie
24.8252525445236,60.1824549948475,Vuorimies
24.826114505367602,60.1823329426139,Vuorimies
24.823316434113696,60.18574321691871,Konemies
24.8339823413143,60.179905096102,Miestentie
24.8333230434403,60.179487373942,Miestenmetsä
24.833344986226802,60.1789307315028,Miestenmetsä
24.823351973732,60.1864431133576,Konemies
24.819818598405103,60.184966030658906,Tietotie
24.8205414106856,60.185042343902396,Tietotie
24.8130532352435,60.1861476056406,Innopoli
24.814266892905398,60.18493739702121,Innopoli
24.8293088530514,60.18966424252729,Sähkömies
24.826179650666298,60.186362700228,Otakaari
24.827485151343303,60.1845234859776,Aalto-yliopisto (M)
24.827571372157603,60.1836522889573,Aalto-yliopisto (M)
24.828910444619602,60.183868323938704,Aalto-yliopisto (M)
24.8091305536053,60.1871409828689,Tietäjä
24.8293458197544,60.175401352319206,Keilaniemi
24.829220395426002,60.17542906428229,Keilaniemi
24.823501902083898,60.1845123726397,Aalto-yliopisto
24.8234818607376,60.18443171431029,Aalto-yliopisto
24.809859229407,60.1881867096014,Falcon Business Park
24.8311648783465,60.18108067097071,Aalto Design Factory
24.8330449743714,60.1848746462957,Dipoli
24.836016649255498,60.184793118223105,Otahalli
24.8139286181444,60.182919906570994,Kimmeltie
24.814488757655397,60.182979299036205,Kimmeltie
24.8210502908862,60.181601440311205,Futuro Business Park
24.8172198231414,60.187001634355,OIH Maarinranta
24.825917611353898,60.1687446918484,Karhusaari
24.8049902261414,60.1689362229638,Westendinasema
24.806101860269,60.1679870040322,Kuninkaansatama
24.8053078821704,60.165720934718294,Kuninkaanlahti
24.8062768888517,60.166307452983204,Kuninkaanlahti
24.802655227610696,60.1633045600575,Liinasaarentie
24.8024795940917,60.1627491194686,Liinasaarentie
24.804366222484102,60.16846428908379,Westendinasema
24.8244795893015,60.1703064689411,Karhusaarensilta
24.8261213574949,60.1682497488604,Karhusaari
24.806318001662504,60.1687217107029,Kuninkaansatama
24.804719202961802,60.1681659439004,Westendinasema
24.804896878665105,60.168802151704504,Westendinasema
24.804340505946602,60.168886310570095,Westendinasema
24.8415408190688,60.1668333241393,Hanasaari
24.802205559869105,60.1685043060976,Etelätuulensilta
24.796544883970004,60.168323011291896,Golfpolku
24.796550952323397,60.167829302888,Golfpolku
24.789353673112103,60.1644076663504,Westendinkulma
24.7903519993394,60.165478821248705,Westendinkulma
24.803816646879696,60.168826656224795,Westendinasema
24.803383064454398,60.1687754287424,Westendinasema
24.8043394096103,60.1688414379146,Westendinasema
24.7914674895349,60.1624293529317,Alalinnake
24.7894390906568,60.1604577822912,Linnake
24.7901145159505,60.160085748571205,Linnake
24.7921203379905,60.164112914843294,Mäenrinne
24.794427609690104,60.1641888688797,Mäenrinne
24.799766508463396,60.163016837354895,Hiiralankaari
24.7901907448028,60.1632627470068,Alalinnake
24.794396230408896,60.1584086028343,Hiiralankaari
24.798904355324602,60.1586597643905,Westendintie
24.800724409917603,60.1661167042257,Ankkurisaarentie
24.836259127052497,60.163841862534504,Hanas. kultt.keskus
24.7709020271897,60.1609887298272,Hauenkallionpolku
24.7756484016487,60.1621727849179,Pattistenpelto
24.785252030768103,60.1623496250734,Toppelundinportti
24.842413300057398,60.165732722928,Hanasaari
24.782918067452503,60.162659630876504,Salakkatie
24.768124986770502,60.1577466201132,Hauenkita
24.766930962510198,60.1582831072161,Hauenkita
24.763804859081002,60.158597357118396,Haukilahdenranta
24.7633491895437,60.159138531410704,Haukilahdenranta
24.761845869819798,60.1603230121315,Gäddvikintorppa
24.761586402680898,60.1615631668052,Telamäentie
24.785778615244897,60.1595101361474,Toppelund
24.787411811258,60.159276049667504,Toppelund
24.7825055427901,60.159700036519496,Mellstenintie
24.783695946469802,60.1590198161759,Mellstenintie
24.780760657392502,60.16206199558721,Säynävätie
24.780213625792605,60.161777988843205,Säynävätie
24.7748033678044,60.161468634664296,Pattistenpelto
24.7725807486288,60.166526023222296,Kuhatienahde
24.7725900240877,60.1653860386932,Kuhatienahde
24.7731168356414,60.166343381960296,Kuhatienahde
24.7701418756884,60.1669890024736,Niittysilta
24.772969037789196,60.1592802613377,Haukikuja
24.774524037564102,60.1603123834849,Haukikuja
24.7694642955176,60.15803505601279,Haukiverkko
24.771087724793,60.15815128527701,Haukiverkko
24.7748265362507,60.16321878763821,Ukkohauentie
24.7724757341075,60.1674242179687,Haukilahdensolmu
24.774478336163398,60.1644953906714,Kiiskitie
24.774345731036803,60.1642179143013,Kiiskitie
24.776794950962802,60.1626776951964,Haukilahden keskus
24.776464036539803,60.1623924067095,Haukilahden keskus
24.7676234559623,60.1624977407721,Hauenkallio
24.771156779737503,60.162638801867104,Hauenkallio
24.772704300892,60.163347858720996,Hauenkulma
24.756408148653897,60.1658563235391,Matinsolmu
24.7666087554598,60.1661029180845,Haukilahden lukio
24.778943311873398,60.165178326043794,Haukilahden kenttä
24.760914630686198,60.1636673664324,Telamäentie
24.775502758467496,60.191928476335,Seilimäki
24.776373239868498,60.1906218938775,Seilimäki
24.769188171353,60.1947836367021,Vanha-Mankkaa
24.769640873783803,60.194098851333706,Vanha-Mankkaa
24.765839439175895,60.1972982768807,Mankkaankallio
24.7653856952756,60.1963943412149,Mankkaankallio
24.7480769538228,60.183666682681,Kokinkylänsolmu
24.753417603657798,60.180001260707996,Kokinkylänsolmu
24.748026106195802,60.1869790318569,Lukusolmu
24.7488109439314,60.1889941535062,Lukusolmu
24.7504251914067,60.1878540839017,Lukusilta
24.7532241093923,60.1825694355523,Juhannusmäki
24.7584627482325,60.186237609407996,Lukutie
24.756893689668196,60.1861927169015,Lukutie
24.760915780611,60.18865599981049,Laurintie
24.7606257962842,60.189366750016,Laurintie
24.7644096561288,60.191633826683905,Juhanintie
24.763811326314503,60.19148468451839,Juhanintie
24.7683265034464,60.1941693001826,Vanha-Mankkaa
24.769225665060702,60.194074331999204,Mankkaanaukio
24.75524015759,60.1808974503689,Kokinkylänsilta
24.7535237873081,60.1814906387585,Kokinkylänsilta
24.7537809189563,60.1832753597021,Juhannusmäki
24.7781741488705,60.1928373410413,Mankkaan koulu
24.767639737006196,60.188689067180604,Seilimäki
24.756480730500602,60.190180320600795,Laurintie
24.7606110268133,60.1824913786499,Fin-Scan
24.762965595967998,60.2000973245521,Kruununtie
24.762897055567002,60.1986974976614,Kruununtie
24.760048605953802,60.20417111295421,Klovinristi
24.7603111533021,60.203047638025,Klovinristi
24.7589039546661,60.2053624650035,Nihtisilta
24.759833184720897,60.19953187403029,Kruununkuja
24.759719002242605,60.199272230457,Kruununkuja
24.757024865257602,60.2005083334642,Taavinkylä
24.7542659664683,60.1997162260511,Taavinkylä
24.749215479397503,60.2020067308667,Klovi
24.7481497494414,60.20113311967629,Klovi
24.742127812316603,60.2027556439551,Stensinsilta
24.765662066575498,60.20361824761479,Vehkamäki
24.7620520293033,60.2034684887943,Klovinristi
24.7675709844606,60.2035084858871,Vehkamäki
24.7874890016783,60.201659447092894,Turvesuonristi
24.7749755202732,60.203214126359995,Vehkaniitty
24.745560270436002,60.2014438944278,Vanha-Stens
24.7450307796022,60.20194951063029,Vanha-Stens
24.7499672249226,60.200180405006705,Nygrannaksentie
24.750155711416802,60.1997485029835,Nygrannaksentie
24.7713242747603,60.1997707486639,Porttipuisto
24.7501145841956,60.196364872459604,Taavinkylän koulu
24.757961123620802,60.194973912657794,Taavinsuo
24.7541538003188,60.198756456587404,Taavinkylän lastent.
24.7617543283432,60.1968460773777,Taavinharju
24.8397735544862,60.2062935114105,Gallen-Kallelan mus.
24.8230275712484,60.203732608084294,Villa Elfvik
24.804683512232103,60.20354891718,Laajalahden keskus
24.8123542956765,60.208932549023196,Leppäsolmu
24.7896058901785,60.201207052566296,Turvesuonristi
24.785644227983603,60.201428036148,Turvesuonristi
24.787608538849103,60.206649279973405,Turvesolmu
24.7837444987116,60.2072107044687,Turvesolmu
24.805249702674605,60.2038416843696,Laajalahden keskus
24.7926222145832,60.205156373254205,Koivistontie
24.7874498817891,60.200026083679,Tapiola golf
24.8039876430228,60.202377303484106,Laajalahden päiväk.
24.808983735777897,60.2016917023149,Räisäläntie
24.7402055436126,60.1606161376136,Matinkylä (M)
24.742168315863104,60.159007471289904,Matinkylä (M)
24.741428476051897,60.1581409574545,Matinristi
24.74161641297,60.15848996281861,Matinristi
24.7426836062324,60.1579005611411,Anjankuja
24.744610695707102,60.15631898426721,Akselinpolku
24.744912250079004,60.1553209746831,Akselinpolku
24.7472026959858,60.1531000329485,Sepetlahdentie
24.7467351318717,60.1539194672616,Sepetlahdentie
24.7386670268528,60.162680176635,Piispanaukio
24.7382111913368,60.162431392989,Piispanaukio
24.7481598312557,60.149261957250395,Nokkala
24.748644627094396,60.149205365052005,Nokkala
24.7413301082517,60.1481693768783,Nuottaniemi
24.7383888462739,60.1575026878642,Kala-Matti
24.738233436771697,60.157799754943596,Kala-Matti
24.740593091859,60.155425956406205,Mirjankuja 1-3
24.7407566265205,60.1538901787684,Tiistilänkaari
24.7370193776936,60.15907209809279,Leilitie
24.7371045407162,60.1628773640001,Piispansilta
24.7259358987809,60.1578766378541,Kalatorppa
24.7254228683782,60.1566587380787,Kalaonni
24.7370245947856,60.156890948639706,Tiistiläntörmä
24.7396750190167,60.1538333875896,Tiistilänkaari
24.7360471825555,60.154248515922,Tiistilänkuja
24.7362140378649,60.151240692855204,Nuottalahti
24.7370026395903,60.15027589857671,Nuottalahti
24.728862587221197,60.1542343574879,Kalastajankuja
24.729184589958898,60.1533260306868,Kalastajankuja
24.736029780623003,60.154275539966896,Tiistilän koulu
24.7473089462616,60.1617521202211,Matinkallio
24.747688327361498,60.1618038361733,Matinkallio
24.7462656547319,60.1594242859157,Matinniitty
24.7480871424422,60.1595396818999,Matinniitty
24.740850284013902,60.1620576408698,Nelikko
24.740624704784302,60.16163703841121,Nelikko
24.7502203713806,60.155156404100104,Aapelinkatu
24.7497432528651,60.15555403946429,Aapelinkatu
24.7530006157007,60.1562626189571,Matinkartanontie 1
24.7502441829822,60.151458229807,Matinlahti
24.7500919736391,60.15188993084929,Matinlahti
24.751749925242,60.1566915806431,Matinkartanontie 1
24.7506894685621,60.159147988201894,Matinkartanontie 7
24.749856487674197,60.1589462583785,Matinkartanontie 7
24.7484423154695,60.1601121293949,Matinkylän terv.as.
24.752780093646003,60.1568562756266,Forever Matinkylä
24.7506851729106,60.1589595203707,Matinkylän jäähalli
24.7544153622373,60.151991057586606,Hotelli Matinlahti
24.762461770552303,60.152698989704504,Palosaarentie
24.7650748991034,60.15435343964721,Koukkuniementie
24.756227671742398,60.157213638997405,Iirislahdentie
24.760352478007697,60.1572618523139,Iirislahdenranta
24.739451540886602,60.15992023236079,Matinkylä (M)
24.7510788715586,60.1627989393087,Matinsyrjä
24.752232242831997,60.163618175474205,Matinsyrjä
24.7550429218134,60.1613043904642,Iirislahti
24.755252628743897,60.161024945661495,Iirislahti
24.7598231274404,60.1616361144854,Telamäentie
24.7606591120635,60.1611825296902,Telamäentie
24.736527762579303,60.1612469739409,Puntaritie
24.740521751736,60.1610631620547,Matinkylä (M)
24.740996234262198,60.160539914404495,Matinkylä (M)
24.7389910219431,60.1602638805776,Matinkylä (M)
24.7389548070347,60.160255106625996,Matinkylä (M)
24.738918390789102,60.1602373579836,Matinkylä (M)
24.738864370518602,60.16023765904429,Matinkylä (M)
24.7388099475934,60.1602200107205,Matinkylä (M)
24.738737719295003,60.1602114373895,Matinkylä (M)
24.738683497772797,60.160202763695004,Matinkylä (M)
24.738629276278896,60.1601940899782,Matinkylä (M)
24.7385750548135,60.1601854162392,Matinkylä (M)
24.738502424166604,60.160158893416,Matinkylä (M)
24.726335578481102,60.15721921579289,Kalaonni
24.726478622641896,60.1563567556717,Kalaonni
24.725066585994302,60.1609241879514,Tiistinniitty
24.9944014276299,60.2432023525178,Eskolantie
24.9920486067253,60.247196315996106,Kenttätie
24.991383076115103,60.2472820700032,Kenttätie
24.9871157129642,60.25129021810929,Pukinmäenkaari
24.986647591841603,60.2507371860399,Pukinmäenkaari
24.9863232084071,60.2447526160054,Kilpisenpolku
24.9869423723282,60.2449275353596,Kilpisenpolku
24.9909950909129,60.2428059462426,Madetojankuja
24.9922467782479,60.2477782747637,Kenttätie
24.9974220486084,60.2487268648313,Ukkostie
24.997396629136098,60.248484703870105,Ukkostie
25.0015152908851,60.2461648260864,Ruotutorpankuja
24.9906793858431,60.2431134857979,Madetojankuja
24.9910998151218,60.2438822838704,Madetojanpolku
24.9936202228037,60.243639048313206,Pukinmäen asema
24.987734236838797,60.237642118313,Savela
24.9912840603522,60.2392223665094,Eteläniitynpolku
24.9945428134281,60.240122525429705,Ratavallintie
24.9942476384228,60.2512370177336,Leppätie
24.987797757663998,60.2475511388472,Erkki Melartinin tie
24.9887013864397,60.246377536169994,Säveltäjänpolku
24.993277533098997,60.2514058444743,Leppätie
24.980107656567696,60.2397720884279,Isonpellontie
24.979126459044398,60.2401652947828,Isonpellontie
24.9924430979738,60.242328379854,Pukinmäen asema
24.9930717387811,60.241623551972104,Pukinmäen asema
24.9914979039105,60.247496636454706,Kenttätie
24.9868281442296,60.25073584456489,Pukinmäenkaari
24.994365053625103,60.243193648909795,Eskolantie
24.9871310913839,60.2421974322799,Miekkamiehentie
25.0028454747701,60.2465587075982,Ruotutorpankuja
24.9937594312751,60.242273654903094,Pukinmäki
24.993795260625202,60.242264410751105,Pukinmäki
24.991161991707802,60.2495277170607,Pukinmäen Kirjasto
24.9823959917868,60.2444496165459,Sinivuorenpolku
24.983877366596303,60.2432717711322,Sunilankuja
24.985415224043496,60.24518122830771,Jokipellontie
25.0123675465209,60.2531915396953,Malmin kauppatie
25.0094529858442,60.250036217167796,Malmin asema
25.0091507478296,60.250191106323996,Malmin asema
25.0094924087008,60.2501436296285,Malmin asema
25.0091260685888,60.2499758696204,Malmin asema
25.009323179767105,60.25051293228729,Malmin asema
25.0092251754518,60.2502623488216,Malmin asema
24.9993153515384,60.256342225332794,Syystie
25.0092185504002,60.2500469749331,Malmin asema
25.012897556401402,60.2533939468626,Malmin kauppatie
25.010355723481602,60.251788650346604,Malmin kauppatie
25.014454286665202,60.2540911703033,Piilikuja
24.999855757130298,60.252738785999696,Malmin sairaala Lab
24.9938459549776,60.2516888235993,Leppätie
25.004172208478302,60.2497890196146,Traktoritie 2
25.005635704807897,60.2545262506868,Notkotie 12
25.0051911508788,60.2565222872811,Notkotie 25
24.9991069234203,60.254243411918495,Malmin sairaala Fys
25.0084863315496,60.2514886985402,Malmin tori
25.0071987304526,60.25190239000239,Malmin tori
25.0026866149819,60.2543600514112,Malmin sairaala
25.002873945007302,60.25339820547179,Malmin sairaala
25.000593891967203,60.253846250215304,Malmin sairaala
25.000391166595602,60.2543055529486,Malmin sairaala
25.003227174962696,60.25372764965201,Malmin sairaala
25.009219536552,60.2536014664322,Viljakuja
25.008706654130503,60.253955426878605,Viljakuja
25.010562380661604,60.255565976963304,Malmin raitti 15
25.0099489690997,60.2555885947374,Malmin raitti 15
25.009452709738603,60.25002724325629,Malmin asema(term.)
25.0091510238545,60.250200080236205,Malmin asema(term.)
24.9989054773995,60.2565248282223,Syystie
25.0084863315496,60.2514886985402,Malmin tori
25.0073015543053,60.251722090068704,Malmin tori
25.0029478690805,60.2540439189861,Malmin sairaala
25.002713355554,60.253462249958496,Malmin sairaala
25.0022799565982,60.25287310556929,Malmin Kirkko
25.005591711835798,60.2548586957298,Ylä-Malmin päiväkoti
25.015480200768,60.2493080895026,Ala-Malmin raitti
25.031046412941603,60.24125332228599,Tattariharjuntie
25.030965193348603,60.240966719268506,Tattariharjuntie
25.020981964855103,60.24214791214789,Latokartanontie
25.0232400765265,60.2416099195401,Latokartanontie
25.014423502024698,60.252511627165795,Soidintie
25.0099694776604,60.242761717495696,Riihenkulma
25.005194177626702,60.24601136523721,Karviaisrinne
25.0109960489953,60.2514696170973,Malmin kauppatie
25.0107643231437,60.2480515201635,Ala-Malmi
25.029435795829396,60.2405567112408,Malmin hautausmaa
25.0256898434791,60.257604262431705,Turvekuja
25.0189841248886,60.25455915056111,Hela-aukio
25.021152399735197,60.240082112687304,Hiekkakiventie
25.0238342069191,60.2432928352809,Malmin jäähalli
25.015462440358,60.2434827860756,Riihenkulma
25.0152597140641,60.2433496958407,Riihenkulma
25.0097954008074,60.2488398044715,Ala-Malmi
25.0161599290964,60.252013647835504,Soidintie 3
24.9960262938662,60.2431991503732,Eskolantie
24.9968588222115,60.243264710995795,Eskolantie
25.008728918453002,60.24704373114471,Karviaistie 2
25.003393920470902,60.2467789648466,Ruotutorpankuja
25.0113626565326,60.2475443078485,Ala-Malmi
25.011262986330298,60.2472398823322,Ala-Malmi
25.0319277896428,60.244020075312605,"Usvatie, parkkip."
25.0090515268691,60.25048806855129,Malmin asema tulo
25.009496274366,60.2502692643852,Malmin asema tulo
25.019656484151103,60.2419067684165,Pihlajamäentie
25.0089348762565,60.249043817219494,Malmin asema
25.0091764811309,60.24926638172279,Malmin asema
25.009392689753604,60.248663345776606,Malmin asema
25.0097062351114,60.2488763864925,Malmin asema
25.0090751020012,60.250667409605796,Malmin asema
25.008294449182802,60.2499462821447,Malmin asema
25.016517080099,60.2495514854338,Ala-Malmin raitti
25.0201794167272,60.2500170834068,Lallintie
25.0198944476477,60.2501449365514,Lallintie
25.021549701233802,60.253426415490104,Teerisuontie
25.020932427792697,60.2533234496594,Teerisuontie
25.020271668810896,60.2425303653427,Pihlajamäentie
25.019769042117602,60.2426239868079,Pihlajamäentie
25.0280644245163,60.2423086898752,Raetie
25.0276963260321,60.2426616051701,Raetie
25.0335912964271,60.243522430316,Usvatie
25.0342936386222,60.244037572547995,Usvatie
25.019040609458898,60.242423130379706,Vanha Helsingintie
25.0181019839624,60.242430330557795,Vanha Helsingintie
25.024766269493103,60.256372700118106,Saniaistie
25.0237958918732,60.2565327758354,Saniaistie
25.012117151315998,60.2515149340658,Ala-Malmin tori
25.0121633483376,60.2506708368055,Ala-Malmin tori
25.0151821287917,60.2530982474678,Soidintie
25.013794867553703,60.252624139428995,Soidintie
25.0175588156361,60.2516977525126,Pekanraitti
25.0177246171085,60.25122075299829,Pekanraitti
25.0128254346051,60.248717993784,Paavolantie
25.01096421427,60.248678319606896,Paavolantie
25.0347325863337,60.2447881412617,Tullivuorenkuja
25.012401442502103,60.25019329324721,Ala-Malmin tori
25.0297822162605,60.2498711599654,Pakkastie
25.0124661303244,60.2505338886319,Ala-Malmin tori
25.0076952005719,60.249250701853704,Malmin asematie
25.0082887863454,60.2491743883438,Malmin asematie
25.0336975799053,60.2468965981032,Nallenmäentie
25.011704844549698,60.249857513262604,Ala-Malmin tori
25.025646964095397,60.251034141478996,Teerisuonkuja
25.0254780158823,60.2508289974182,Teerisuonkuja
25.0126356009124,60.25017355595921,Ala-Malmin tori
24.9968415888819,60.2432917683744,Eskolantie
24.9960648472552,60.243279645185005,Eskolantie
25.020532660049895,60.2422141984303,Latokartanontie
25.0232000597019,60.2414845633445,Latokartanontie
25.0080065349697,60.249391955242395,Malmin asematie
25.007969316690698,60.2481804764087,Pekanraitti
25.008152611129304,60.2482688451503,Pekanraitti
25.022054567273504,60.237166933290204,Malmin hautausmaa
25.0210793654675,60.2400557462401,Seppämestarintie
25.015024485820003,60.243916983828896,Riihenkulma
25.014655690303197,60.2436684736752,Riihenkulma
25.0120202919062,60.2507168070835,Malmin asema
25.01056656238,60.2480799532701,Ala-Malmi
25.0109621649817,60.2474396451425,Ala-Malmi
25.0202902773203,60.2425481744285,Latokartanontie
25.0195546652859,60.24269744131661,Latokartanontie
25.028104179827,60.2424250706691,Raetie
25.027766842110896,60.242607203103,Raetie
25.033320531282502,60.24352453767139,Usvatie
25.034309992885603,60.243983588840294,Usvatie
25.011326953308895,60.248729413783394,Paavolantie
25.0125532401268,60.2486751893673,Paavolantie
25.012483908369497,60.2505247770824,Ala-Malmin tori
25.001719348879,60.2463428070381,Ruotutorpankuja
25.0309798517442,60.2414333601706,Tattariharjuntie
25.030870717337,60.240832812015704,Tattariharjuntie
25.0080318910721,60.249041698415795,Malmin asematie
25.011669012024104,60.2498667622462,Ala-Malmin tori
25.012617269152898,60.2501647197237,Ala-Malmin tori
25.0107836141259,60.251022433558,Malmi
25.0107452918358,60.25095091713511,Malmi
25.0220434153135,60.24260650018721,Malmin Jäähalli
25.0263934803006,60.23968265916079,Malmin Hautausmaa
25.0154546518047,60.247315608216,Hietakummun koulu
25.0110862733989,60.2356442050747,Liusketie
24.998122704356298,60.2302040951588,Viikinmäki
24.9982938668453,60.229897623395004,Viikinmäki
25.008841917201,60.2377975727245,Maasälväntie
25.014434400926103,60.2347569651444,Kivijalka
25.014805051150397,60.2344848513397,Kivijalka
25.0182434623895,60.2370974802416,Liuskekuja
25.0102363632755,60.2309023532681,Pihlajistontie
25.0113998843363,60.2323476118274,Meripihkatie
25.0116655819008,60.2321840186755,Meripihkatie
25.0121782460537,60.2330059063109,Meripihkatie
25.022258003446698,60.2367434929311,Malmin hautausmaa
25.0215842814541,60.235976738754104,Malmin hautausmaa
25.018949545595003,60.2371638714862,Liuskekuja
25.020834493194105,60.238567606440895,Hiekkakiventie
25.0185654637532,60.2393300439281,Marmoritie
25.019226580947,60.23910954565121,Marmoritie
25.002664788247,60.237099355742906,Vuolukiventie
25.002887892714895,60.2367206779071,Vuolukiventie
25.000696954605303,60.229394824749406,Aulangontie
25.0030963572561,60.234681546455604,Kinttupolku
25.009090758952397,60.2347348561763,Meripihkatie
25.009225749795604,60.234428645045206,Meripihkatie
25.0075160620135,60.23341836347429,Kiilletie
25.011587726556602,60.2331719759282,Meripihkatie
25.0111480028224,60.2329599009715,Meripihkatie
25.0103993011479,60.2344376708003,Pihlajamäki
25.010208898761302,60.2341159825954,Pihlajamäki
25.006592956588896,60.2374556012466,Vuolukiventie
25.008126737214603,60.2362591286205,Vuolukiventie
25.0028197724656,60.2398089421394,Rapakivenkuja
25.0024325579814,60.24013500258351,Rapakivenkuja
25.0081612943539,60.233269848693396,Kiilletie
25.008523118238696,60.2303588658289,Pihlajistontie
25.0052348163941,60.23083260831451,Salpausselänpolku
25.003996352536802,60.2310574052184,Salpausselänpolku
25.000209228558802,60.231157801087896,Pihlajiston ostosk.
24.998326062024802,60.2309565517185,Hattelmalantie
25.0007661430548,60.231072819710995,Pihlajiston ostosk.
25.019687116458602,60.2335947193777,Ketokiventie 1
25.0180006799124,60.2315970276856,Ketokivenkaari 10
25.015348414770898,60.231042873019,Johtokiventie 10
25.016606574965,60.23320544665339,Kivipyykintie 5
25.0001775220017,60.22952440372439,Aulangontie
25.008604792526196,60.23007998822,Pihlajistontie
24.9977240894741,60.2408436671944,Rapakivenkaari
24.9990039813599,60.240780187688294,Rapakivenkaari
25.0093192414985,60.233359786574105,Graniittitie
24.997045497983603,60.233362772080405,Pihlajisto
24.9983862682544,60.2299687366636,Viikinmäki
24.9979808505723,60.22969352846479,Viikinmäki
25.009616237916898,60.2306916461016,Pihlajistontie
25.012616094207303,60.2325717175111,Meripihkatie
25.0121987813948,60.2330865340705,Meripihkatie
25.021779663602,60.2370344085615,Malmin hautausmaa
25.0207687184336,60.2387745610895,Seppämestarintie
25.0115691281252,60.2331541655725,Meripihkatie
25.0112143798029,60.2327708986499,Meripihkatie
25.0069481321317,60.2372644115151,Vuolukiventie
25.006187652287696,60.237189392767704,Vuolukiventie
25.002799027847,60.24031175560761,Rapakivenkuja
25.0126852935499,60.2348151987471,Pihlajamäen kirkko
25.0406014946698,60.2442396192492,Valuraudantie
25.039173447248,60.2441879703103,Valuraudantie
25.045400495430897,60.245252124182606,Malmin lentokenttä
25.0505453726406,60.246342505816706,Kankiraudantie
25.0561654571829,60.2475994565294,Harkkoraudantie
25.040686059812604,60.2440594352647,Valuraudantie
25.039173447248,60.2441879703103,Valuraudantie
25.045668414216102,60.2451602539901,Malmin lentoasema
25.0506860568754,60.2462247037885,Kankiraudantie
25.0573263509203,60.2477607639373,Harkkoraudantie
25.037569454306603,60.263696482979796,Helluntairaitti
25.036770749748303,60.263577054589604,Helluntairaitti
25.0396381954935,60.262845537213494,Sointutie
25.0361609804936,60.264290918612794,Tasankotie 9
25.0416488947736,60.2652892196724,Aurinkomäki
25.039992582931102,60.244396982743794,Valuraudantie
25.044520522796397,60.2454026660748,Malmin lentokenttä
25.048446124584103,60.246197527667,Kankiraudantie
25.033068155389298,60.2555813288688,Pilvitie
25.0317462846208,60.256049381678295,Pilvitie
25.055592953799895,60.24776557807879,Harkkoraudantie
25.040065542422,60.2620792287538,Tasankotie
25.0349785795712,60.2451452662831,Tullivuorenkuja
25.0319337983704,60.24937872832621,Pakkastie
25.033849354170698,60.2471287938359,Nallenmäentie
25.041503100917897,60.262974545190204,Tasankotie
25.039920377118,60.24439754824571,Valuraudantie
25.044665795690197,60.245428451473295,Malmin lentoasema
25.0496278543993,60.246448498179205,Kankiraudantie
25.0566146259767,60.248089567776205,Harkkoraudantie
25.000253792139997,60.23143572200979,Salpausseläntie
25.0007656039718,60.23164728923489,Salpausseläntie
24.9919701155432,60.2559484867221,Haapatie
24.9941494802492,60.2539574761892,Suvitie
24.9925736355691,60.2561953053975,Haapatie
24.9891031360413,60.2555120929591,Haapatori
24.9934243324891,60.2532717513552,Suvitie
24.9973136125572,60.2564470306192,Syystie
24.997900449250604,60.2573312455124,Syystie
24.988042858150603,60.2556905280249,Haapatori
24.993428958530398,60.258791944518,Vanha Tapanilantie
24.993365266605302,60.2584782616745,Vanha Tapanilantie
24.9863873990551,60.2613038360344,Valakkatie
24.987018690768103,60.2606708292936,Valakkatie
24.9838975757155,60.2638176175004,Santerlantie
24.983576219914102,60.26394566060121,Santerlantie
24.9839933160744,60.2549666091053,Tapaninvainiontie
24.983605736403998,60.2552926147715,Tapaninvainiontie
24.9838394351034,60.254653590144905,Tapaninvainiontie
24.983507137129003,60.2544137000446,Tapaninvainiontie
24.9815679643929,60.2572105942205,Uimarannantie
24.9814531668465,60.256996019418104,Uimarannantie
24.981678481045602,60.259696118617896,Pohjanpellontie
24.980251277718,60.25908731740729,Pohjanpellontie
24.9843092986498,60.261283347021894,Immolantie
24.9836574853623,60.2612343195526,Immolantie
24.9843902296951,60.2585630306413,Uimarannantie
24.982243453724397,60.259862485304005,Karhusuontie
25.0001788939961,60.2633369933035,Hippiäistie
24.999790830400897,60.2636450978092,Hippiäistie
24.994074923427302,60.2622249102305,Leivosentie
24.994744833038897,60.262273751221706,Leivosentie
24.9952311205754,60.2604390098124,Varpustie
24.995527798056898,60.260095699535704,Varpustie
24.992266756241698,60.2591865984528,.
24.993038167535,60.259010290088604,.
24.9873638822378,60.25893590233051,Tapaninvainiontie
24.987120498998102,60.2592518701063,Tapaninvainiontie
24.9837368554354,60.2584601595974,Uimarannantie
24.9819092335007,60.2595597736808,Karhusuontie
25.0052672416718,60.2584156462672,Kuhankeittäjäntie
24.999289336576,60.25726694773851,Syystie
25.001806998863202,60.259267579988006,Laulurastaantie
25.0005329443571,60.25836163224461,Laulurastaantie
25.003411762491698,60.260942952945896,Kotikaivontie
25.0038042233183,60.2613708351794,Kotikaivontie
25.0046318652179,60.258312741514594,Kuhankeittäjäntie
25.009487694822397,60.262315124337206,Tapaninkallio
25.009729779249803,60.2619632206246,Tapaninkallio
25.012900027942,60.264587004078294,Sidetie
25.0142735883493,60.26577033151171,Tapanilan urheilukes
24.9758837030128,60.264074200683204,Immolantie 59
24.9872823017908,60.2520250099679,Katajamäentie 2
25.000502308797003,60.2591337978267,Antinkoti
25.011480756389197,60.260747115632896,Huhtapuisto
24.9910539266261,60.2614935015911,Laukkipäänpolku
24.989994731262602,60.2611154330595,Laukkipäänpolku
25.004606936835298,60.2639857549918,Leivosentie
25.0043288539267,60.2637544820664,Leivosentie
25.0097786462713,60.2670701883816,Sidetie
24.9980405506926,60.2571865771111,Syystie
24.9930518798202,60.258866571962606,Vanha Tapanilantie
24.993602214537695,60.258548297247295,Vanha Tapanilantie
24.986812223340397,60.26101344993239,Valakkatie
24.987000630060397,60.2606709634912,Valakkatie
24.983739321126,60.2639624048124,Santerlantie
24.9835907830828,60.2638288653434,Santerlantie
24.9836467236869,60.254852488801,Tapaninvainiontie
24.9835251944097,60.25441356633039,Tapaninvainiontie
24.990677624718,60.26159504419189,Laukkipäänpolku
24.990310438852703,60.261400310791,Laukkipäänpolku
25.026404051471896,60.2573384405461,Turvekuja
25.0288870093247,60.2587553942974,Saniaiskuja
25.0282235934447,60.25891312395329,Saniaiskuja
25.029160850191,60.2611498714898,Fallkullantie
25.028828112887602,60.2614845618892,Fallkullantie
25.0312728275355,60.26282098431479,Fallkulla
25.0304823450078,60.262961759155,Fallkulla
25.032276405886503,60.263710791828295,Sammalpolku
25.0316529836175,60.2639938916032,Sammalpolku
25.0134494325033,60.26424172598289,Sidetie
25.0150822723456,60.265629514851206,Tapanilan urheilukes
25.031869655309,60.2599709489999,"Fallkulla, parkkip."
25.026374673808398,60.2575540921463,Saniaistie 6-8
25.0283803788524,60.2633370891854,Sompiontie 4
25.019052564923,60.265482430313796,Hiidenkiventie 21
25.025751762210497,60.2618943220243,Kuulijankuja
25.023829711163803,60.2691886942965,Päivöläntie
25.0258528256347,60.2651249071912,Tapanilan tori
25.0121899915335,60.2620701610081,Kotinummentie
25.012069101282602,60.2622506020717,Kotinummentie
25.017550505272602,60.2607456377446,Halmetie
25.016681672502397,60.26127289884379,Halmetie
25.0213809149924,60.2601866552534,Viertolantie
25.020223469214002,60.2607251348796,Viertolantie
25.0270915152721,60.2631406123261,Tapanilan asema
25.0266349118723,60.2629825736304,Tapanilan asema
25.016149396409503,60.2656662366306,Tapanilan urheiluk.
25.025451230966002,60.2649933675953,Tapanilan tori
25.0131842374708,60.2574130119383,Huhtakuja
25.0127349848781,60.25748824613029,Huhtakuja
25.0154390978194,60.2678169310359,Kotinummentie
25.029307468024303,60.268123102235606,Moisiontie
25.0193331456839,60.2692771262271,Rintamasotilaantie
25.0145939678822,60.2673656122793,Kotinummentie
25.0123527609368,60.259735160644595,Huhtapuisto
25.0285884424831,60.262482756359795,Tapanila
25.0284436692337,60.2624749012766,Tapanila
25.0038160866979,60.280642163242504,Iltatähdentie
24.983375101617398,60.269287841179704,Peltokyläntie
24.9835813604961,60.2695376409302,Peltokyläntie
24.992041322814803,60.2714404757986,Kytöpolku
24.992079487004197,60.272104411688794,Kytöpolku
24.991219356519498,60.275333198693296,Siltamäen ostosk.
24.990935469057003,60.27730104916229,Siltamäki
24.990953912972497,60.274922284818004,Siltamäen ostosk.
25.003315427989897,60.28200131421271,Pohjantähdentie
24.997926444102802,60.2748072697577,Suutarilantie
24.998504360673397,60.274793952155704,Suutarilantie
25.0069750690696,60.278149872023704,Vaskipellontie
25.0058396738299,60.27825720685289,Vaskipellontie
25.0112924620775,60.2804149340081,Hannukselanpolku
24.9802239218786,60.267237684272295,Niemitie
25.0007023312949,60.2822633677999,Revontulentie
24.9961009854352,60.2748030152083,Suutarilan palveluk
24.9918025910842,60.2748980008652,Riimusauvantie
25.0170439443302,60.2811070701484,Lampputie
25.0052421554983,60.277633410661295,Vaskipellontie
25.0182357303859,60.2828123559135,Hehkulanka
25.013025425224498,60.2838485081788,Sarastustie
25.012132014984303,60.284187426201704,Sarastustie
25.027661233272198,60.282470522884104,Tikkuritie
25.0043506458698,60.279210945968295,Revontulentie
25.0174145359593,60.2808170019812,Tapulikaupungintie
25.016045790940698,60.2798131886105,Tapulikaupungintie
25.0152659695602,60.2861472112113,Suutarilantie
25.013469456026,60.2841772336672,Suutarilantie
25.0151088587188,60.2869113687699,Ala-Tikkurila
24.989491235032897,60.2773566912268,Siltamäki
24.9952391921629,60.2785614223036,Kiertotähdenkuja
24.989889766170602,60.27678823828239,Siltamäki
24.994096121094497,60.27841738733171,Kiertotähdenkuja
24.9979165987715,60.2792324912855,Häräntie
24.998487459691702,60.279578265395,Häräntie
25.0041346984059,60.279831919452,Revontulentie
25.0181677421253,60.2812061763472,Lampputie
25.013260203839998,60.2820874277905,Kynttiläkuja
25.0129966090399,60.282331788628305,Kynttiläkuja
25.015756126424197,60.281547766967,Lampputie
25.0156885670263,60.2817008749608,Lampputie
25.0156007096104,60.2817823302245,Lampputie
25.010977696637397,60.2807584159897,Sateenkaarentie
25.004776162116297,60.2848356570735,Pienenkarhunpolku
24.9902777851442,60.27467599894529,Siltamäen uimahalli
25.0125363896945,60.279723287596504,Lamppupolku
25.0170825948356,60.2811875581561,Lampputie
25.011357338477396,60.2795886507208,Hannukselanpolku
25.017622929343098,60.2828709056875,Hehkulanka
25.0089668231213,60.28178798338389,Penttiläntie 1
24.9861845780378,60.273781919345595,Jousimiehentie 10
25.011630365163697,60.2819921331868,Böstaksentie
25.019424825806897,60.2821031131132,Valokaari
25.0191108288264,60.2789818791609,Lyhtytie
25.016905932979398,60.2789897947795,Lyhtytie
24.995905977972498,60.2755225536288,Suutarilan palveluk
25.009366763124298,60.27951402591821,Hannukselanpolku
24.9920591178473,60.27143136697121,Kytöpolku
24.991610981525103,60.2715513997737,Kytöpolku
25.010941075616397,60.280157304450206,Hannukselanpolku
25.0109785272397,60.2807853375862,Sateenkaarentie
25.0275166532697,60.28247164085361,Tikkuritie
25.0298959962711,60.2828302143258,Tikkuritie
25.0154900791658,60.284628559725505,Suutarilantie
25.0146194622786,60.285703349909895,Suutarilantie
25.0179074742019,60.270499816440704,Takalantie
25.017221524775895,60.2705230220839,Takalantie
25.0228176206916,60.2709198824679,Rimpisuontie
25.0227551554353,60.2712345233817,Rimpisuontie
25.0272708889248,60.2711727567764,Suopursuntie
25.027118133762198,60.271488098031206,Suopursuntie
25.029881519510603,60.2697163839061,Niittyvillantie
25.029175558044898,60.2696769744666,Niittyvillantie
25.028284332231003,60.283892885861206,Aamuruskonkuja
25.028674014116696,60.2842130058423,Aamuruskonkuja
25.0250578110885,60.284770530769606,Juhannuspolku
25.026037080303603,60.285445148993,Juhannuspolku
25.0230269614743,60.2863120964378,Päivänpalauksenpolku
25.0233123769252,60.286767674188795,Päivänpalauksenpolku
25.0187740277242,60.28791556113811,Iltaruskontie
25.035510667766104,60.284886967417705,Härkävaljakonkuja
25.0345424937043,60.283996907649204,Härkävaljakonkuja
25.039166409632802,60.286150977165,Ränkipolku
25.034504363657604,60.283934372465296,Juhtatie
25.028287157049498,60.2805268660925,Arttolantie
25.0276885354146,60.2833409830398,Tikkuritie
25.0299994846991,60.278646596818895,Tapulikaupungintie
25.031615083074602,60.2782929758554,Tapulikaupungintie
25.0210717857171,60.2844870562628,Aamuruskonpolku
25.0353209881145,60.283461260921094,Ränkitie
25.035241718376103,60.2752308789762,Puistolan asema
25.0354241040028,60.275283313909505,Puistolan asema
25.020386298194605,60.2787297394707,Henrik Forsiuksen t.
25.022209331718997,60.27806945672971,Henrik Forsiuksen t.
25.0350088120407,60.2752955255113,"Puistolan as., tulo"
25.0352038808105,60.2751773176939,"Puistolan as., tulo"
25.0348157252144,60.275476549686005,"Puistolan as., tulo"
25.026616182505897,60.2779636749115,Kämnerintie
25.024270444179802,60.2780894891294,Kämnerintie
25.034076432220804,60.276676114727294,Hatuntekijänkuja
25.034184281465897,60.276657323346996,Hatuntekijänkuja
25.034916119651697,60.2769388576961,Hatuntekijänkuja
25.0348438420215,60.2769394206172,Hatuntekijänkuja
25.028814609271496,60.2806304955348,Arttolantie
25.0356843556378,60.2749401970504,Puistolan asema
25.0352174141621,60.275033596035,Puistolan asema
25.034401785714802,60.272095815451,Porvarintie
25.0336019956391,60.271374982523405,Porvarintie
25.0322359052712,60.2681632132119,Tapanilankaari
25.029959202360896,60.2681629312254,Moisiontie
25.0234654704729,60.269676204999,Päivöläntie
25.0253133020332,60.26924906100229,Päivöläntie
25.0189215491888,60.2694059475229,Rintamasotilaantie
25.02780091436,60.2834657778401,Tikkuritie
25.0300648232323,60.28417530512589,Aamuruskontie
25.0002646392944,60.2726623844123,Töyrynummentie
25.000546319338998,60.2724179123914,Töyrynummentie
25.0006070701633,60.2714480502382,Töyrynummenpolku
25.001264045121797,60.2716585241569,Töyrynummenpolku
24.980540574976,60.2663467286706,Niemitie
24.993547760311998,60.2668873820403,Soinintie
24.9928720512268,60.26665008265179,Soinintie
24.9966579961603,60.267564210892495,Vallesmannintie
24.9953037065475,60.267592315756,Vallesmannintie
25.0016635187918,60.2681728355278,Korsitie
25.0004373053667,60.2682538827763,Korsitie
25.009528754559803,60.268930116774904,Yrttimaantie 65
24.9821858890948,60.2645752881448,Kirkonkyläntie
24.983070126370002,60.265143208724794,Peltohiirenkuja
25.013502035362603,60.2676970827049,Kotinummentie
25.009561189756102,60.269396621534604,Yrttimaantie 65
25.0053966322648,60.271474724994,Yläkaskenkuja
25.0044870618749,60.2718675716653,Yläkaskenkuja
25.001331258134798,60.27504195762071,Yläkaskentie
25.0017949716402,60.274248577162,Yläkaskentie
25.0060987432442,60.26844450512879,Sidekuja
25.005797696999803,60.2686442561654,Sidekuja
25.0082364468225,60.267449916883,Sidetie
25.0032499591955,60.265692470660895,Kottaraistie
25.002797002215,60.2656510106743,Kottaraistie
25.0074092134668,60.2669894411273,Sidetie
24.9805836807272,60.266579785177704,Niemitie
24.980397137346397,60.2663836910678,Niemitie
24.993294319194497,60.2668713252641,Soinintie
24.9930969732794,60.2669176804484,Soinintie
24.9823665179349,60.264573952554905,Tapaninkyläntie
24.983103831202502,60.2650621757187,Peltohiirenkuja
25.032599691435102,60.267092239805095,Kuutie
25.044666378080503,60.2738017337286,Puistolan tori
25.0409121873249,60.265986148926004,Aurinkomäki
25.0431879562485,60.265393831195,Aurinkomäki
25.033229385798396,60.267006559674705,Kuutie
25.0577730676961,60.2644167949751,Karhekuja
25.056630065826603,60.2637078067639,Karhekuja
25.0591409178936,60.2676103496278,Koudantie
25.057842261961998,60.2665615221251,Koudantie
25.046074604844303,60.271492789701995,Karrintie
25.0466091454704,60.271255203009304,Karrintie
25.0610083175309,60.2694804211415,Puistolan raitti
25.0616236947678,60.2695114093694,Puistolan raitti
25.034725320636397,60.2697505553467,Hyttyspolku
25.035446521081198,60.26970005634929,Hyttyspolku
25.036606682337798,60.2715310937049,Raidepolku
25.0372725839293,60.27144511235021,Raidepolku
25.0373657334494,60.274388519531605,Simakuja
25.0374311884418,60.2741725840477,Simakuja
25.0631740752002,60.26995679047871,Nummitie
25.038687407287803,60.27389348897671,Puikkopolku
25.0379996975538,60.273862959275206,Puikkotie
25.056329879893603,60.270092169369796,Puistolan VPK
25.0587515259293,60.270099821036794,Puistolan VPK
25.051124252592302,60.271174677983105,Puistolan kirkko
25.053184846384802,60.270628772771396,Puistolan kirkko
25.0393317226674,60.2719855337259,Alankotie
25.0385723545233,60.27197351977261,Alankotie
25.0440531630057,60.2744079475871,Puistolan tori
25.0414943870366,60.279194296171596,Fastbölentie
25.039969281770702,60.2767019321341,Terrintie
25.0411433213649,60.276109296779296,Terrintie
25.0505727508464,60.267498862252594,Läksyrinne
25.059820313882398,60.2679460216236,Puistolantie
25.060229336887197,60.2683018003406,Puistolantie
25.0628691862638,60.26612645101629,Maamiehentie
25.062216582033702,60.266059862290895,Maamiehentie
25.0639850090025,60.2676614021986,Kirsitie
25.0598137525704,60.2710966698962,Otermantie
25.059176511718,60.2709491587415,Otermantie
25.058535111397802,60.27291104987739,Topiaksentie
25.0579497246643,60.272691311180296,Topiaksentie
25.055340111910898,60.27414823239079,Kehtotie
25.055309620054604,60.27376250467239,Kehtotie
25.0526480149987,60.2741695879923,Laaksokuja
25.053051176328502,60.2737804235452,Laaksokuja
25.0514694285052,60.27517526038179,Sirkkalankuja
25.050952700523897,60.275969239670296,Sirkkalankuja
25.0470968849685,60.2752097906108,Mustanniemenkuja
25.0470185834239,60.275587400925296,Mustanniemenkuja
25.045289894011102,60.268985676105096,Kanttorintie
25.049891896045104,60.269371261812495,Läksyrinne 11
25.0402981199237,60.273396182254494,Mehiläistie 6
25.0406501845158,60.27253172689421,Mehiläistie 12
25.0330321930108,60.2687763691459,Tapanilankaari
25.0433054716615,60.265680141538404,Suurmetsäntie
25.036548702595898,60.2759836506874,Puistola
25.0365865433008,60.2760372115722,Puistola
25.0646190016854,60.267710179426295,Kirsitie
25.069065488636397,60.268311772933394,Kirsikuja
25.068914243450305,60.2681065402884,Kirsikuja
25.070142323550602,60.2697482507952,Heikinlaakso
25.067536517596302,60.2724081785283,Päiväkoti Savotta
25.0657410014436,60.274433230836294,Sahatie
25.073035255506202,60.2747694694771,Roosinmäki
25.0738526692063,60.2726893928998,Puunkaatajanpolku
25.0665431421778,60.2679819800478,Kirsitie 26
25.0725234102792,60.2696213367891,Heikinlaakso
25.0645152832758,60.269524175670206,Nummitie
25.069688250016398,60.2635853440026,Suurmetsäntie
25.071913381354605,60.26754381054071,Kalliotie
25.0711073106482,60.2666527044088,Kalliotie
25.072000236420397,60.270200028091004,Heikinlaakso
25.0771518030474,60.274646399712,Korvasienentie
25.0721254541481,60.267398481967106,Kalliotie
25.071237860219,60.2667773168293,Kalliotie
25.0771029862671,60.2742608241967,Korvasienentie
25.076259992975803,60.274456152989394,Korvasienentie
25.0734566404818,60.2705293593233,Heikinlaakso
25.0722649211731,60.2694528778903,Heikinlaakso
25.063311929784604,60.253035790603796,Jarrutie
25.0621325154915,60.252309189429795,Jarrutie
25.0649419991769,60.2592970109108,Tattarisuontie
25.063715144051,60.2582297124834,Tattarisuontie
25.0684928153091,60.262383194479106,Suurmetsäntie
25.068140653026,60.2626642851753,Suurmetsäntie
25.0633435944328,60.255126964250294,Hevosmiehenkatu
25.0642790660263,60.256124792471,Hevosmiehenkatu
25.0701344286032,60.2628636639112,Suurmetsäntie
25.0634304480202,60.253349004575796,Jarrutie
25.061744633041897,60.2520430085178,Jarrutie
25.0649536479184,60.2590994438011,Tattarisuontie
25.063697667206103,60.2582478046009,Tattarisuontie
25.068385325290798,60.262410987304605,Suurmetsäntie
25.0678370600925,60.2622179221663,Suurmetsäntie
25.0595590889678,60.2632177208607,Karhekuja
25.0693968357817,60.262959364799,Suurmetsäntie
25.0674759393395,60.2633338582398,Vanha Porvoontie
25.0772201224553,60.260777794591704,Jakomäenkuja
25.078281093033,60.2567837984141,Kankaretie
25.079776635157103,60.2659990762061,Mätäspolku
25.0750535428995,60.26191735879561,Jakomäen ostosk.
25.0757170858572,60.2617683694139,Jakomäen ostosk.
25.0714730798457,60.2590470126649,Jakomäentie 6
25.0719289627278,60.2591779756707,Jakomäentie 6
25.069533407383197,60.254960573513095,Jakomäentie 10
25.069943250125604,60.2553432443486,Jakomäentie 10
25.0734630875265,60.253618359799795,Kaadekuja
25.0732712208317,60.253826360710896,Kaadekuja
25.0780567631127,60.253805553419596,Maratontie
25.078136362284997,60.2540293098747,Maratontie
25.0826508388982,60.2567392745514,Louhikkotie
25.0815318423318,60.256218800999406,Louhikkotie
25.084881711745,60.2597460196761,Somerikkopolku
25.083889914195105,60.259798997235094,Somerikkopolku
25.083810542475902,60.26450312241239,Kalteentie
25.080035682606802,60.261796158288796,Huokotie
25.079306413306604,60.26214317752271,Huokotie
25.084149571508004,60.2643746904935,Kalteentie
25.086277203582,60.2609733172642,Kuussillantie
25.085801990151502,60.260806656698506,Kuussillantie
25.0742784845848,60.2603169093715,Jakomäen terveysas.
25.0744590847499,60.26031544859671,Jakomäen terveysas.
25.0751459069068,60.2619794438563,Jakomäen ostosk.
25.0737713554283,60.2613801884245,Jakomäen ostosk.
25.0706202761304,60.2578241654008,Jakomäentie 6
25.0713603881501,60.2578092214828,Jakomäentie 6
25.069523250446,60.255203009737905,Jakomäentie 10
25.069974095669302,60.255181426225995,Jakomäentie 10
25.0747098560948,60.253635204934206,Kaadekuja
25.073072893436,60.25383693939529,Kaadekuja
25.077966481063598,60.253806286237,Maratontie
25.0779007427145,60.2540042940851,Maratontie
25.0824353275269,60.256776935531704,Louhikkotie
25.081765408790602,60.2561809944131,Louhikkotie
25.084899771384897,60.2597458721685,Somerikkopolku
25.0838324728823,60.2597007288,Somerikkopolku
25.084021949430102,60.2643398276137,Kalteentie
25.0784164073991,60.261997812533295,Huokotie
25.0784826906623,60.2623652942436,Huokotie
25.007002845373897,60.1890176980628,Kulosaari (M)
24.9959530590142,60.1854388907401,Hopeasalmenranta
24.9957810153625,60.185709464857595,Hopeasalmenranta
25.0019409123965,60.1849808906675,Marsalkantie
25.0008130843822,60.1858241819235,Marsalkantie
25.0060013174689,60.183971759734796,Kalliokaivonmäki
25.005091697398502,60.184283843528796,Kalliokaivonmäki
25.0126889821834,60.18342717688579,Lars Sonckin tie
25.0116874176727,60.1836771756979,Lars Sonckin tie
25.0157966548382,60.18659890388061,Risto Rytin tie
25.014829167172497,60.18561893897179,Risto Rytin tie
25.003795886234197,60.1861158033211,Ståhlberginkuja
25.0148919952822,60.18823947975161,Tupasaarentie
25.0005771966331,60.1851796837252,Kulosaarentie
25.001296597152,60.18512937399571,Kulosaarentie
24.9990078298556,60.186322500326206,Kulosaari
25.001499231156,60.187641147323106,Kulosaari
25.011549514810902,60.188570200757596,Tupasaari
25.010681929983896,60.18907947576421,Tupasaari
25.0159050379528,60.188357389707406,Tupasaarentie
24.983645112409302,60.1800822733511,Korkeasaari
24.9930622631597,60.1822202041306,Mustikkamaa
24.993220357578302,60.1820843790578,Mustikkamaa
25.007883703536802,60.1877633310946,Kulosaari (M)
25.0085030053173,60.187974049763405,Kulosaari (M)
24.9900337299649,60.1803937760048,Mustikkamaanpolku
24.990317673762103,60.1802480387131,Mustikkamaanpolku
25.011682130901104,60.18584943211351,Tupavuori
25.0117109146078,60.1861992803681,Kyösti Kallion tie
25.0116170672929,60.187250199543506,Tupavuori
25.0075677630072,60.1862757004712,Svinhufvudintie
25.0094879242565,60.187176660982196,Tupavuori
25.014792730690104,60.188527474436704,Tupasaarentie
25.0062932531736,60.1893911030264,Kulosaari (M)
25.0131011438131,60.1897880832585,Rantatöyry
25.006021833625102,60.1893572575956,Kulosaari(M)
25.000790151810797,60.18803247103129,Purjehtijankuja
24.9947627520644,60.18660573742889,Raitalahti
24.9989900825994,60.186331610081794,Kulosaari
25.001586601050402,60.1875507267599,Kulosaari
25.009531166391,60.188585578360204,Tupasaari
25.010681654223102,60.189070501773,Tupasaari
25.008185369123698,60.188784312659905,Kulosaari
25.0081518025401,60.1888653526021,Kulosaari
25.001304607262803,60.1907214119497,Kulosaaren Kappeli
25.012811501250898,60.1944309344966,Kivinokan ulkoilup.
25.0144337634939,60.1926682005082,Kulosaaren Kartano
25.0320769825036,60.1953595740769,Herttoniemi (M)
25.0212727164483,60.191718111971,Kipparlahti
25.029720056161498,60.19436359006829,Herttoniemi (M)
25.0301650341468,60.1941806128461,Herttoniemi (M)
25.0321792101088,60.1945958089069,Herttoniemi (M)
25.0309521610384,60.1945604705443,Herttoniemi (M)
25.0303263776028,60.1947269026398,Herttoniemi (M)
25.031628620725304,60.195434870609105,Herttoniemi (M)
25.039651408958395,60.2079747034902,Kettulehto
25.031317698920198,60.1952936704376,Herttoniemi (M)
25.030824003263398,60.1950731049695,Herttoniemi (M)
25.0316717136684,60.1950844670327,"Herttoniemi(M), tulo"
25.031782676041303,60.195173365143795,"Herttoniemi(M), tulo"
25.0341182598068,60.1994996176542,Susitie
25.0355296304243,60.2013735921174,Hirvitie
25.036156586816602,60.2029574686884,Ahmatie
25.036652785004502,60.2038242752281,Ilvestie
25.0374827340192,60.2089790496703,Siilitie
25.0378895344989,60.2087245373924,Siilitie
25.0312312349726,60.19541103209951,"Herttoniemi(M), tulo"
25.0293680031161,60.19463560581801,Herttoniemi (M)
25.0393444589296,60.2073936611569,Kettukuja
25.0444570846855,60.2065277118221,Siilitie (M)
25.044879263614202,60.20619227144711,Siilitie (M)
25.041680255057898,60.20711503665629,Näätätie
25.040477862471,60.2073039931855,Näätätie
25.0382734201182,60.2094575747072,Siilitie 9
25.037976117158603,60.209181641461896,Siilitie 9
25.0388607171754,60.2126305185293,Siilitie 11
25.038039548053003,60.21233175724029,Siilitie 11
25.044178757336898,60.214796901151196,Siilitie 13
25.043880142886895,60.21505058139,Siilitie 13
25.0312489781243,60.1954019180519,Herttoniemi (M)
25.031717609930897,60.196547216526696,Hiihtäjäntie
25.0318161808581,60.197964675471894,Herttoniemen kirkko
25.031063562302,60.1992630867601,Herttoniemen kirkko
25.032060962666698,60.2023161837248,Majavatie
25.031100686543102,60.20159658584271,Majavatie
25.034764856044603,60.204575053731205,Eränkävijäntori
25.0337261615155,60.2042330824396,Eränkävijäntori
25.036784909614397,60.205726177840205,Kettutie
25.035930983537,60.205526397334005,Kettutie
25.039334090157105,60.20763609731029,Kettukuja
25.0392368397092,60.2074124563292,Kettulehto
25.0369034604847,60.20719733289061,Siilikuja
25.0374765864144,60.2076416581015,Siilikuja
25.0289630672905,60.2035879240927,Majavatie
25.0278750070937,60.1976272506326,Mäenlaskijantie
25.0362061835465,60.198810117171796,Konemestarinkatu
25.03754948488,60.1990958298819,Konemestarinkatu
25.044743066708303,60.2058791797968,Siilitie (M)
25.031191821746003,60.194729153867904,Herttoniemi (M)
25.031357698838,60.1948445537666,Herttoniemi (M)
25.0184481223772,60.1913179527601,Kipparlahti
25.0297062865614,60.1939238674424,Herttoniemi (M)
25.031597363705302,60.1950132363394,Herttoniemi (M)
25.0317823944525,60.1951643912198,Herttoniemi (M)
25.0214881517673,60.1916895247678,Kipparlahti
25.021455451310302,60.1917974898382,Kipparlahti
25.031682417520198,60.1948510048149,Herttoniemi (M)
25.029153215073,60.1935332106377,Herttoniemi
25.0382339534297,60.2093501702634,Siilitie 9
25.0370692228368,60.209592657223205,Siilitie 9
25.038859866012398,60.212603596889,Siilitie 11
25.038556691873804,60.2127136832011,Siilitie 11
25.043817198797697,60.214772817235,Siilitie 13
25.0318161808581,60.197964675471894,Herttoniemen kirkko
25.0310911582137,60.199568059938,Herttoniemen kirkko
25.0319694121594,60.2022720153442,Majavatie
25.031298431369,60.2015770966277,Majavatie
25.0344352395863,60.204416054125296,Eränkävijäntori
25.0337267259615,60.204251030251704,Eränkävijäntori
25.036788306529196,60.205833864583596,Kettutie
25.0358244996835,60.20558108532471,Kettutie
25.039278861272003,60.2076006254754,Kettukuja
25.039529595511304,60.2075448046758,Kettukuja
25.0367599939898,60.1992186916152,Konemestarinkatu
25.0447711400218,60.20562762741489,Muuntajankatu
25.029108131230803,60.1938207960075,Herttoniemi
25.0306896749751,60.1948138414769,Herttoniemi
25.0307076992483,60.1948137014287,Herttoniemi
25.044555919305395,60.2056652264419,Siilitie
25.044520429387198,60.2056834580771,Siilitie
25.061085124052,60.20316436386911,Päiväkoti
25.0626503017595,60.204722662416295,Punahilkantie
25.060876094779502,60.2050689780852,Punahilkantie
25.0605276047638,60.203770223319594,Prinssintie
25.0577285347868,60.20084839350179,Vuorenpeikontie
25.0575944199158,60.201163627742005,Vuorenpeikontie
25.063777242279603,60.1955220499844,Ruonasalmi
25.062691960722297,60.195970580550096,Ruonasalmi
25.0548195062822,60.197855571234996,Keijukaistenpolku
25.0513947273206,60.196195244535296,Jättiläisenpolku
25.0508582819939,60.196334137338496,Jättiläisenpolku
25.0569685593365,60.2063747761862,Prinsessantie
25.0574888440722,60.206289845230295,Prinsessantie
25.0620272829944,60.2060920248676,Ammattikoulu
25.059437764932603,60.203527598468,Prinssintie
25.0625070241752,60.20363769615021,Roihuvuoren vanhaink
25.052124937268,60.194223679595396,Roihuvuorentie
25.058894262757,60.194492956160495,Satumaanpolku
25.052214024078804,60.1975710741321,Tuhkimontie
25.052032331729198,60.197527634455994,Tuhkimontie
25.0575465076835,60.1946293741602,Satumaanpolku
25.053603072346302,60.195342941658495,Porolahden koulu
25.0531315628649,60.1952569244075,Porolahden koulu
25.055888792342802,60.198026587490794,Keijukaistenpolku
25.0546649366812,60.19753365901651,Keijukaistenpolku
25.0598749546307,60.2008671676005,Vuorenpeikontie
25.0593108993079,60.20071010203,Vuorenpeikontie
25.0548412645728,60.200781620475205,Roihuvuoren ala-aste
25.0591854610924,60.202973092085294,Prinssintie
25.0618386714436,60.2019286027514,Roihuvuoren kirkko
25.0615731780897,60.2020833219295,Roihuvuoren kirkko
25.065779233473897,60.2016636251509,Kreijarinkuja
25.0646344617684,60.2019510774115,Kreijarinkuja
25.0634781989885,60.199096958328106,Hgin kuvataidekoulu
25.0343561783924,60.1944531859951,Insinöörinkatu
25.044123475353302,60.198864729430596,Asentajankatu 3
25.0427560287099,60.198956270097895,Asentajankatu 6
25.045185004854897,60.20219548930739,Mekaanikonkatu 7
25.0448166800211,60.2025215309155,Mekaanikonkatu 10
25.0408836743358,60.1984772873137,Asentajanpuisto
25.041220082887,60.198851644523295,Asentajanpuisto
25.038732972706597,60.19603468747871,Työnjohtajankatu
25.0368586048772,60.1937694163185,Puusepänportti
25.0480371707025,60.2045516627038,Muuntajankatu
25.048159370955602,60.2044250316115,Muuntajankatu
25.034905269741,60.193569243480994,Laivalahdenportti
25.0511534548202,60.2050027448701,Sahaajankatu 33
25.050211606863698,60.2048755614927,Sahaajankatu 33
25.0534575052798,60.2065552937699,Pikkupurontie
25.0527941105262,60.2066772489603,Pikkupurontie
25.0482944508378,60.2052677201544,Mekaanikonkatu
25.04756810618,60.205111886786696,Mekaanikonkatu
25.0461236395857,60.1931581031902,Porolahti
25.046312701090997,60.198533316319796,Asentajankatu
25.0451264802938,60.1918464715193,Johan Sederholmin t.
25.0431950609763,60.1946083723451,Abraham Wetterin tie
25.0423468149124,60.192873671022205,Abraham Wetterin tie
25.0471186135148,60.1938324390204,Porolahti
25.046498130219604,60.19302948327599,Porolahti
25.0476260301892,60.1990076625344,Asentajankatu
25.0471802651763,60.19803278361171,Asentajankatu
25.0483628395972,60.202888506354796,Sahaajankatu 13
25.048129898477,60.2029352274642,Sahaajankatu 13
25.0475188669127,60.205830365399706,Siilitie (M)
25.0434614700148,60.1961860759451,Puusepänkatu
25.0429693877956,60.1960193993101,Puusepänkatu
25.053606158358498,60.207254251569395,Pikkupurontie
25.037567228249397,60.1990867149934,Konemestarinkatu
25.0474298597469,60.2058669725765,Muuntajankatu
25.0374413956304,60.1910989502231,Margareetankuja
25.023969542346396,60.1920653410857,Kipparlahti
25.0350081676849,60.191683455003,Hitsaajankatu
25.0350338695116,60.192500081626996,Hitsaajankatu
25.0306807408183,60.1928032612777,Petter Wetterin tie
25.0321180874798,60.1926484671855,Petter Wetterin tie
25.027380334834398,60.1921825848522,Hitsaajankatu
25.028092271163896,60.19188983311751,Hitsaajankatu
25.023633400032303,60.191690939071705,Suolakivenkatu
25.0237841494454,60.191321755213394,Suolakivenkatu
25.034875949596895,60.19321042739511,Laivalahdenportti
25.0278668149145,60.1910208973815,Niittaajankatu
25.025812949528497,60.190480278409005,Herttoniemenranta
25.0319356052293,60.1914291348461,Paasivaaranpolku
25.0406155893074,60.1922858632184,Linnanrakentajantie
25.0380336131494,60.1927279720917,Linnanrakentajantie
25.045108228312397,60.1912721424991,Johan Sederholmin t.
25.0339191978385,60.191449592449,Sisselenpolku
25.0346417880818,60.1914978147683,Sisselenpolku
25.039521605936102,60.1913250192029,Linnanrakentajantie
25.041228495348502,60.18773015327379,Kaivolahdenkatu
25.041118703161697,60.18881712768229,Kaivolahdenkatu
25.0337007759448,60.1879416303076,Sorsavuorenkatu
25.042528151564802,60.1866517832343,Tuorinniemi
25.0426135995474,60.1870729901491,Tuorinniemi
25.040383388928298,60.188365114628105,Kaivolahdenkatu
25.0369001038734,60.1887963178145,Kerttulinkuja
25.037256652227803,60.1892423364441,Kerttulinkuja
25.0353278707018,60.18695054109921,Killingholmankuja
25.036032909347,60.1870168446334,Killingholmankuja
25.030751363361603,60.1870041392415,Reginankuja
25.031081928411698,60.18662457258921,Reginankuja
25.030014440567697,60.188221640689,Suolakivenkuja
25.0296658674268,60.188026872553394,Suolakivenkuja
25.0285637681944,60.1856387996747,Herttoniemenranta
25.0256523731702,60.1893774583609,Herttoniemenranta
25.0261831112799,60.189633660515696,Herttoniemenranta
25.025343096723,60.189864559630095,Herttoniemenranta
25.024025566813197,60.1921277413346,Kipparlahti
25.032161185963503,60.1945959491547,Herttoniemi
25.0498008078096,60.18975402137939,Väylänsuu
25.049538219011698,60.189998455436104,Väylänsuu
25.054535929470703,60.19013833811189,Kummeltie
25.0541283363587,60.1903570057355,Kummeltie
25.0593234910222,60.1904682105406,Leppisaarenkuja
25.058318316930198,60.190601900867904,Leppisaarenkuja
25.0625547944948,60.1917259554859,Pellonperäntie
25.0622890965342,60.1918717022659,Pellonperäntie
25.0652674556132,60.1936610013969,Mäntypaadentie
25.0703861362957,60.1919592028548,Tammisalon puisto
25.067141925044304,60.19420245680529,Mäntypaadentie
25.106117052614398,60.214492556104496,Puotilantie
25.106109499773396,60.214268214095796,Puotilantie
25.108147523101202,60.21478978268289,Ruotsinsalmentie
25.103278603819604,60.2271995360307,Huntutie
25.1031210524436,60.2273444643211,Huntutie
25.1085818716753,60.2148310358539,Ruotsinsalmentie
25.115758629201398,60.216332747906506,Varjakanvalkama
25.1152454078656,60.2160947043246,Varjakanvalkama
25.117436135364,60.21844599533879,Varjakanvalkama
25.1183611675004,60.220179588150394,Linnavuorentie
25.120246821184804,60.218862133736295,Varjakanvalkama
25.0933900180793,60.218556524928395,Nyytorpinpolku
25.098192129591,60.2262004809681,Huntupolku
25.1018676576504,60.2184953844004,Karhulantie
25.111267460648303,60.2163614567111,Pyötsaarenkuja
25.110763373393198,60.216392605579394,Pyötsaarenkuja
25.1138428669745,60.218359511776,Uiskotie
25.092654432750898,60.2235623095876,Kiviportintie
25.1051213223188,60.2235039718429,Sormuspolku
25.107601046817997,60.221589325313204,Vartiokyläntie
25.097495407377,60.223172297504505,Lappeentie
25.1045180666669,60.2200531616427,Lappeentie
25.114129019380304,60.2182853001289,Uiskotie
25.1147576572223,60.2197969998575,Muinaislinnanpolku
25.1145883164411,60.2195919694547,Muinaislinnanpolku
25.094530047251602,60.221365646066,Inkeroistentie
25.0939326854992,60.221307737928804,Inkeroistentie
25.1107741351444,60.2209793537514,Itäväylä
25.110499315215602,60.2208559868082,Itäväylä
25.1036580632901,60.214863101717995,Kuutsalontie
25.1047786373654,60.214925586887,Kuutsalontie
25.1001628627499,60.21984697922171,Valkealantie
25.101437497554603,60.2191183120228,Karhulantie
25.0989444112863,60.2200994310432,Valkealantie
25.1003928423178,60.21971042982761,Valkealantie
25.0937566465411,60.2236070881219,Soraharjuntie
25.093026219415396,60.2228052503194,Soraharjuntie
25.0976994517736,60.2244182982148,Helytie
25.097186181252397,60.224718755792395,Helytie
25.102054344413,60.2245976387018,Riskutie
25.101555840553196,60.224799252815295,Riskutie
25.1035897972092,60.217664241451395,Karhulantie
25.104279465648798,60.218322742603206,Karhulantie
25.102720774331104,60.2181112985382,Karhulantie
25.108146060391803,60.2200947277374,Riskutie
25.1074816912757,60.2201900353572,Riskutie
25.1143930330069,60.2234084952301,Linnanherrantie
25.113743003238802,60.22339599910379,Linnanherrantie
25.1041174365871,60.21833306693149,Karhulantie
25.103009360458497,60.2181089002921,Karhulantie
25.1083459889472,60.22013793919479,Riskutie
25.1079747642508,60.2203654437295,Riskutie
25.114579518484696,60.2235864532985,Linnanherrantie
25.1142202492645,60.223634350843106,Linnanherrantie
25.1035186190269,60.2085629702882,Juorumäenkuja
25.104737814630198,60.208346372066295,Vuosaaren silta
25.106676123972804,60.2080609330692,Vuosaaren silta
25.0949948342968,60.2087861829065,Meripellontie
25.0968112903507,60.208088989408395,Meripellontie
25.0901043155123,60.210881997374294,Rusthollarintie
25.091376296662002,60.2095340904346,Rusthollarintie
25.091353038555603,60.2142647283037,Vanhanlinnantie
25.1027539540245,60.211037782577,Juorumäki
25.1020656996853,60.210953738699,Juorumäki
25.1055286621521,60.21148145626571,Puotilan kartano
25.1053811574139,60.2119225189755,Puotilan kartano
25.0973297643143,60.216594128623,Rantakartanontie
25.1025776764541,60.213310225064106,Puotilan leikkiniitt
25.1023417290964,60.2132673043658,Puotilan leikkiniitt
25.0987480482893,60.215307775136004,Puotilan urheilupuis
25.0981471902328,60.2151422012185,Puotilan urheilupuis
25.094540277470198,60.2146334295078,Puotila (M)
25.094620990871395,60.215431643790595,Puotila (M)
25.092608477698,60.21078959171,Rusthollarinkuja
25.092090600098402,60.2109464501211,Rusthollarinkuja
25.0996231012831,60.213424503567104,Leikkimäki
25.099450868098696,60.2136682878154,Leikkimäki
25.0997834022645,60.20905176907579,Puotilantie
25.099705269586202,60.2088728927476,Puotilantie
25.098212469932605,60.2100790904601,Klaavuntie
25.0978397886297,60.210261698308706,Klaavuntie
25.0968102031601,60.2123796171607,Puotilan ostoskeskus
25.0963449245438,60.2124911764126,Puotilan ostoskeskus
25.095495313692698,60.2081088374488,Meripellontie
24.725048408650103,60.1600985147794,Tiistinniitty
24.7320157184507,60.1583817556487,Leilitie
24.734214221934,60.158450380740206,Leilitie
24.7276252088278,60.156906966966,Kalaonni
24.7339765169101,60.1623292416792,Puntaritie 7
24.735420527504395,60.16166600688501,Puntaritie
24.7485972196733,60.16296556285911,Mattlidens skola
24.747877095009898,60.16297860256311,Mattlidens skola
24.746212498416902,60.1634367717705,Matinkallio 12
24.740100930450897,60.16076931029039,Matinkylä (M)
24.739448518415397,60.1597856121541,Matinkylä
24.7395015303795,60.1597404374543,Matinkylä
24.743043752874797,60.1475224980561,Nuottaniemi
24.7476009940871,60.1452618903714,Nuottaniemi
24.736622265304497,60.145341313246405,Nuottarinne
24.720636404158697,60.1633987297654,Tähdenlennontie
24.7124045356694,60.1700134763668,Friisilänraitti
24.711671109405998,60.1710855301049,Friisilänmäki
24.7217262570945,60.1720364741434,Hopeakuu
24.727306419763103,60.16693467283001,Kuitinniitty
24.7242324114393,60.1696711584915,Avaruuskatu
24.723035069567498,60.1701085294381,Avaruuskatu
24.7226319580952,60.1730817071243,Kuunkatu
24.7220870145116,60.1728782326914,Kuunkatu
24.716369982003798,60.1767418878935,Kalliolähde
24.716724631921803,60.1764796748316,Kalliolähde
24.7035646542142,60.1753114851966,Puolarmetsä
24.7025719135233,60.1743832700898,Puolarmetsä
24.704602764491895,60.1741481023876,Puolarmetsä
24.723241139401697,60.163088346606294,Friisilänristi
24.7206751100623,60.16269840846579,Friisilänristi
24.7213410969523,60.163502607269706,Tähdenlennontie
24.720913145690798,60.1628766300774,Friisilänaukio
24.7186456894412,60.164612288550394,Friisinniityntie
24.7226600338802,60.162050324162294,Piispantilankuja
24.7268444690792,60.1664076346274,Kuitinniitty
24.7226376066294,60.162669775494,Piispantilankuja
24.7122278640469,60.1693412430616,Friisilänraitti
24.7188588770578,60.1653022677489,Friisinniityntie
24.7169346825706,60.167924635370795,Tähtikalliontie
24.718082303752198,60.166859284545005,Kivitie
24.708813282443298,60.1747360170489,Holmankorpi
24.7082960671666,60.174981125643704,Holmankorpi
24.7127318309268,60.16682532072821,Friisilän päiväkoti
24.709477516935397,60.167937815819904,Friisilänraitti
24.7109953586597,60.1723278096651,Holmankorpi
24.749806120101,60.16622592615211,Matinsolmu
24.7552883801341,60.1712212646177,Gräsansolmu
24.747223105156603,60.173843008757494,Kalenteritie
24.750847016477103,60.170007825683,Haltila
24.7412136663991,60.167800121438106,Aamutie
24.7438432891532,60.1685842423559,Aamutie
24.758741854795606,60.181146739057105,Parolantie
24.7516595878481,60.16930310956389,Gräsansolmu
24.7534411305148,60.174732335293996,Vuosikuja 4
24.7383590813353,60.164207777602606,Piispansilta
24.736691478352398,60.1645401820183,Piispanristi
24.7372329574721,60.1645910272203,Piispanristi
24.759465269857397,60.1804783898475,Luomannotko
24.755484554116396,60.170349493956095,Niittykummunsilta
24.7457893287074,60.1725854927015,Lystimäenristi
24.7454280428077,60.172542645020705,Lystimäenristi
24.743320131026604,60.1749330611158,Ylisrinne
24.7421190085417,60.1752000855855,Ylisrinne
24.7378424245715,60.174909794899996,Itäportti
24.7385563706597,60.1746096200741,Itäportti
24.7336085452168,60.1749153309783,Alaportti
24.733690617290396,60.1745558458261,Alaportti
24.741541663421103,60.1775639462619,Ylismäenristi
24.7419981392372,60.17783066675221,Ylismäenristi
